"","BusinessID","Name","City","State","Stars","Review.Count","Latitude","Longitude","Category1","Category2","Category3","Category4","Category5","Category6","Category7","Category8","Category9"
"1","mVHrayjG3uZ_RLHkLj-AMg","Emil's Lounge","Braddock","PA",4.5,26,40.4088301,-79.8662107,"Bars","American (New)","Nightlife","Lounges","Restaurants",NA,NA,NA,NA
"2","KayYbHCt-RkbGcPdGOThNg","Alexion's Bar & Grill","Carnegie","PA",4,23,40.4154859,-80.0675491,"Bars","American (Traditional)","Nightlife","Restaurants",NA,NA,NA,NA,NA
"3","b9WZJp5L1RZr4F1nxclOoQ","Gab & Eat","Carnegie","PA",4.5,69,40.3980013,-80.0834577,"Breakfast & Brunch","Sandwiches","Restaurants",NA,NA,NA,NA,NA,NA
"4","wqu7ILomIOPSduRwoWp4AQ","Denny's","Pittsburgh","PA",3.5,16,40.39114,-80.073788,"Breakfast & Brunch","American (Traditional)","Diners","Restaurants",NA,NA,NA,NA,NA
"5","P1fJb2WQ1mXoiudj8UE44w","Papa J's","Carnegie","PA",3.5,81,40.4081527,-80.085153,"Restaurants","Italian",NA,NA,NA,NA,NA,NA,NA
"6","PK6aSizckHFWk8i0oxt5DA","McDonald's","Homestead","PA",2,12,40.412012,-79.9098858,"Burgers","Fast Food","Restaurants",NA,NA,NA,NA,NA,NA
"7","6ilJq_05xRgek_8qUp36-g","Steak 'n Shake","Munhall","PA",2,60,40.413496,-79.9044562,"Burgers","Fast Food","Restaurants",NA,NA,NA,NA,NA,NA
"8","1qCuOcks5HRv67OHovAVpg","Duke's Upper Deck Cafe","Homestead","PA",3.5,33,40.405311,-79.912595,"Pubs","Bars","American (New)","Nightlife","Restaurants",NA,NA,NA,NA
"9","sbW8qHJgzEIH42B0S-3New","Dave & Buster's","Homestead","PA",2.5,106,40.4092932,-79.9141865,"Arts & Entertainment","American (Traditional)","Bars","Pubs","Arcades","Nightlife","Restaurants",NA,NA
"10","McikHxxEqZ2X0joaRNKlaw","Rock Bottom","Homestead","PA",3.5,148,40.4094353,-79.9152619,"Food","American (Traditional)","Breweries","Restaurants",NA,NA,NA,NA,NA
"11","EoAY1JSVeJriBzId8lUQwQ","Bar Louie","West Homestead","PA",2.5,92,40.4070737196062,-79.9173143507142,"Bars","American (New)","Nightlife","Restaurants",NA,NA,NA,NA,NA
"12","tU-YtoW339PXJmUGSix_AQ","TGI Fridays","Homestead","PA",2.5,23,40.4108743190118,-79.9155451418884,"Bars","American (Traditional)","Nightlife","Restaurants",NA,NA,NA,NA,NA
"13","6p9TlP2I8S4agxYMNFSDjg","Uno Pizzeria & Grill","Homestead","PA",3,55,40.410967,-79.9141364,"American (Traditional)","Pizza","Gluten-Free","Restaurants",NA,NA,NA,NA,NA
"14","JDDeaNfb0JXD1NbznSIC9g","P.F. Chang's","Homestead","PA",3,95,40.407143,-79.916091,"Gluten-Free","Asian Fusion","Chinese","Restaurants",NA,NA,NA,NA,NA
"15","FiXamVMgMf9U0VqFHDZSEA","Panera Bread","West Homestead","PA",3,25,40.407174,-79.916603,"Soup","Sandwiches","Salad","Restaurants",NA,NA,NA,NA,NA
"16","uLnDFdn011hEroQQMLmxNQ","The Pizza Company","Munhall","PA",4,12,40.3857182,-79.9032997,"Pizza","Restaurants",NA,NA,NA,NA,NA,NA,NA
"17","eznh0XjVtv924K-KYx_ilQ","Eat'n Park","Homestead","PA",3,51,40.4113236,-79.9132525,"American (Traditional)","Diners","Restaurants",NA,NA,NA,NA,NA,NA
"18","usSROUMiAgPcxV3Ym0OxMQ","Mitchell's Fish Market","Homestead","PA",3.5,122,40.4089628543918,-79.9180766055519,"Seafood","American (Traditional)","Restaurants",NA,NA,NA,NA,NA,NA
"19","r8BwdblCW-ZUES37BL0khw","Broadway Brunch","McKees Rocks","PA",4.5,21,40.472505,-80.074153,"Burgers","Breakfast & Brunch","Diners","Restaurants",NA,NA,NA,NA,NA
"20","mIiHJkpK8nZvW_45LlhrbA","Pasquarelli's Pizza House","Mc Kees Rocks","PA",4,13,40.4660004,-80.0653115,"Pizza","Restaurants",NA,NA,NA,NA,NA,NA,NA
"21","T49ZvBa6mD4xHSmjHe-ArA","R & B's Pizza Place","Bellvue","PA",4,17,40.4941577,-80.0532928,"Pizza","Restaurants",NA,NA,NA,NA,NA,NA,NA
"22","eOv0Dbq2E8sd0CKMAqTImw","Luigi's Pizzeria","Bellevue","PA",4,18,40.495887,-80.056877,"Pizza","Restaurants",NA,NA,NA,NA,NA,NA,NA
"23","Lml0-yTNsMYsP9IrSMxw9A","China Sea Chinese Restaurant","Bellevue","PA",2.5,11,40.4972056,-80.0583585,"Chinese","Restaurants",NA,NA,NA,NA,NA,NA,NA
"24","ucKQlQvOeJxETLNkpKcaSw","Rusty Nail","Bellevue","PA",3.5,32,40.4966408,-80.057381,"American (Traditional)","Restaurants",NA,NA,NA,NA,NA,NA,NA
"25","ZL6DNzyenFm9Kpz6uADlNg","Pino's Contemporary Italian Restaurant & Wine Bar","Pittsburgh","PA",3,65,40.450249,-79.9145,"Tapas/Small Plates","Restaurants","Italian",NA,NA,NA,NA,NA,NA
"26","Y2p07YEC8xOsYTHWf0UxiA","Tasty Chinese Restaurant","Pittsburgh","PA",3,26,40.458497,-79.9246661,"Chinese","Restaurants",NA,NA,NA,NA,NA,NA,NA
"27","g58NW9q4F09wTMiI7EIjmg","Vento's Pizza","Pittsburgh","PA",3,17,40.4653904,-79.9229971,"Pizza","Restaurants",NA,NA,NA,NA,NA,NA,NA
"28","83_p9vIqOq1TUIf3_GD7bA","Tazza D'oro Cafe & Espresso Bar","Pittsburgh","PA",4.5,117,40.4748883,-79.9188657,"Food","Coffee & Tea","Cafes","Restaurants",NA,NA,NA,NA,NA
"29","Ts4xsKPU7FNPPZRj-nRjIg","Buffalo Blues","Pittsburgh","PA",3,62,40.4583902,-79.9255146,"Bars","Restaurants","Sports Bars","Barbeque","Nightlife",NA,NA,NA,NA
"30","UtWJ8NGMg-3z28s0RzlUoQ","China Garden","Pittsburgh","PA",3,18,40.4579893,-79.9181411,"Chinese","Restaurants",NA,NA,NA,NA,NA,NA,NA
"31","B9C6j80ob0f1pwi1Cnnd1Q","Pizza Parma","Pittsburgh","PA",3,37,40.4582251,-79.9251182,"Pizza","Restaurants",NA,NA,NA,NA,NA,NA,NA
"32","tvXTHj9V5sgRoeVJW_FiTg","Jimmy Tsang's Chinese Restaurant","Pittsburgh","PA",3,12,40.4571291,-79.9334864,"Chinese","Restaurants",NA,NA,NA,NA,NA,NA,NA
"33","2SwC8wqpZC4B9iFVTgYT9A","Casbah","Pittsburgh","PA",4,276,40.458138,-79.924797,"Bars","Mediterranean","Wine Bars","Nightlife","Restaurants","Diners",NA,NA,NA
"34","PzG0XmAmtXFs6Fdnubf41g","Quiet Storm Vegetarian & Vegan Cafe","Pittsburgh","PA",4,144,40.464485,-79.935388,"Food","Coffee & Tea","Vegetarian","Restaurants",NA,NA,NA,NA,NA
"35","lHP5STO7aomlEQixH8m1aA","Pizza Perfectta","Pittsburgh","PA",4,81,40.4572561,-79.9253542,"Pizza","Restaurants",NA,NA,NA,NA,NA,NA,NA
"36","-iVcmhjfq79QoTWzrb6pKg","East End Food Co-Op","Pittsburgh","PA",4.5,79,40.4481991,-79.8954753,"Health Markets","Food","Vegetarian","Restaurants","Specialty Food",NA,NA,NA,NA
"37","l_Wey2YC6NvVUIH8vTygGg","Cafe Zinho","Pittsburgh","PA",4,69,40.4578038,-79.9274383,"Portuguese","Mediterranean","Restaurants",NA,NA,NA,NA,NA,NA
"38","qUeBDN0D8SC93KeAHhiL-g","Alla Famiglia","Pittsburgh","PA",4.5,111,40.4216209,-79.9934384,"Restaurants","Italian",NA,NA,NA,NA,NA,NA,NA
"39","LltDzuzRbAJbSrqD4JH-3A","Hunan Wok Chinese Takeout","Pittsburgh","PA",3,12,40.3919558,-79.9874081,"Chinese","Restaurants",NA,NA,NA,NA,NA,NA,NA
"40","QIJa5h2d65Bgh82zct7c7A","Frank & Shirley's Restaurant","Pittsburgh","PA",4,22,40.3886503,-79.9965975,"American (Traditional)","Diners","Restaurants",NA,NA,NA,NA,NA,NA
"41","Ga0y-XHa4os_VvoHz21bfQ","Anthony's Pizza","Pittsburgh","PA",3,12,40.396531,-79.987919,"Pizza","Restaurants",NA,NA,NA,NA,NA,NA,NA
"42","IxQ1ATP_Wg_QujO9nywzcQ","Max's Allegheny Tavern","Pittsburgh","PA",4,162,40.4551576,-79.999728,"German","Pubs","Bars","Nightlife","Restaurants",NA,NA,NA,NA
"43","TyIsuojeKcTb4Acfg7xqew","China Taste","Pittsburgh","PA",4,11,40.4541341,-79.9981189,"Chinese","Restaurants",NA,NA,NA,NA,NA,NA,NA
"44","oj8bMz76cKXQClpFTFNW9w","North Shore Deli","Pittsburgh","PA",4.5,11,40.4535473,-79.9992608,"Delis","Restaurants",NA,NA,NA,NA,NA,NA,NA
"45","k1A8pNspBPinGDivxkuDSA","Clark Bar & Grill","Pittsburgh","PA",3.5,11,40.4489884,-80.0088714,"Bars","American (Traditional)","Nightlife","Restaurants",NA,NA,NA,NA,NA
"46","e5DtayybW4jbKcDBwEUmOQ","Mullin's Diner","Pittsburgh","PA",3.5,11,40.452646,-79.993788,"American (Traditional)","Restaurants",NA,NA,NA,NA,NA,NA,NA
"47","q_BKmbdlYfQJroJVHfYMUQ","Legends of The North Shore","Pittsburgh","PA",4,94,40.4566092,-80.0015054,"Restaurants","Italian",NA,NA,NA,NA,NA,NA,NA
"48","Z101WZaISochG6g7tI2ZVw","Atria's Restaurant","Pittsburgh","PA",3,69,40.4480678,-80.0042395,"American (New)","Sandwiches","Restaurants",NA,NA,NA,NA,NA,NA
"49","Eixtf79t1_ZKaC-7J2kAWg","Pickles Pizza & Sandwich Emporium","Pittsburgh","PA",3,16,40.4535915,-80.0008071,"Pizza","Restaurants",NA,NA,NA,NA,NA,NA,NA
"50","Z0OGW8PysysRXE0dR7QxQQ","Wilson's Bar-B-Q","Pittsburgh","PA",4,20,40.4562032,-80.0144357,"Barbeque","Restaurants",NA,NA,NA,NA,NA,NA,NA
"51","yfuoL_w76WFVHcGJbw0IIg","Nick's Place","Pittsburgh","PA",3.5,11,40.484693,-80.0355244,"Pizza","Restaurants",NA,NA,NA,NA,NA,NA,NA
"52","AAcw9y30cRuMo0oa8UBiIw","Wiseguys Pizza","Pittsburgh","PA",3,12,40.4763098,-80.0311303,"Pizza","Restaurants",NA,NA,NA,NA,NA,NA,NA
"53","YUZVBdGmagwXV-yOhR-1GQ","Miller's Seafood House","Pittsburgh","PA",3,12,40.4851129,-80.0416964,"Seafood","Restaurants",NA,NA,NA,NA,NA,NA,NA
"54","OIL-eZX8d10jgWPLW-E7zA","Chubby's Pizza & Hoagies Northside","Pittsburgh","PA",2.5,14,40.4810675,-80.0413982,"Pizza","Restaurants",NA,NA,NA,NA,NA,NA,NA
"55","PSlOtPIo28BvWOzdLmRRRQ","Knossos Gyros & Sis-Kabob","Pittsburgh","PA",3.5,16,40.3959965,-80.0350383,"Polish","Greek","Restaurants",NA,NA,NA,NA,NA,NA
"56","wan0X-oHpLgGTPXqaICZCw","Huddle","Pittsburgh","PA",4,17,40.409125,-80.024957,"Bars","American (Traditional)","Nightlife","Restaurants",NA,NA,NA,NA,NA
"57","QnyzlVMyx0Exri-Lay10cA","Sushi Three","Pittsburgh","PA",3.5,23,40.3885913,-80.0493988,"Sushi Bars","Japanese","Restaurants",NA,NA,NA,NA,NA,NA
"58","81sqVj0xHyJXGYT0ip5fmQ","Green Garden","Pittsburgh","PA",2.5,13,40.38892,-80.049921,"Chinese","Restaurants",NA,NA,NA,NA,NA,NA,NA
"59","93UCt9OgWYmypZCpXtUu8g","Beto's Pizza","Pittsburgh","PA",4,145,40.4127159,-80.0303499,"Pizza","Sandwiches","Salad","Restaurants",NA,NA,NA,NA,NA
"60","ORTRrw3ClZ0Ld0LgY1H_5g","Eat'n Park Restaurant","Pittsburgh","PA",3.5,21,40.3957953,-80.0335782,"Fast Food","American (Traditional)","Restaurants",NA,NA,NA,NA,NA,NA
"61","5Udv4CASAXB2eH66TefWPQ","Cain's Saloon","Pittsburgh","PA",3.5,106,40.3897336,-80.0409102,"American (New)","Restaurants",NA,NA,NA,NA,NA,NA,NA
"62","2Igiyhi82R8_QaaPplRmCw","The Dor-Stop Restaurant","Pittsburgh","PA",4.5,275,40.396012,-80.034727,"Breakfast & Brunch","Diners","Restaurants",NA,NA,NA,NA,NA,NA
"63","Cex2R008tMFg8R5fAtf77w","Campiti's Don Pizzeria","Pittsburgh","PA",4,37,40.3966306,-80.0357966,"Pizza","Restaurants",NA,NA,NA,NA,NA,NA,NA
"64","n7G2XFGvmS3duDJ4AzjKiQ","Namaste India","Pittsburgh","PA",3,32,40.420335,-80.030114,"Indian","Restaurants",NA,NA,NA,NA,NA,NA,NA
"65","qemCNgjeYGcFsRwxW9x4xw","Bado's Pizza Grill and Ale House","Pittsburgh","PA",3.5,93,40.3886105,-80.0499034,"Italian","Bars","Pizza","Nightlife","Restaurants",NA,NA,NA,NA
"66","2X5G4Ujq0s4Wfn4TC7gX0g","D's Six Pax & Dogz","Pittsburgh","PA",4.5,288,40.432022,-79.893834,"Pubs","Bars","Hot Dogs","Nightlife","Restaurants",NA,NA,NA,NA
"67","XQ7elqSFIRogvqpiTZz-Wg","Dunning's Grill","Pittsburgh","PA",3,21,40.432599,-79.894243,"American (Traditional)","Restaurants",NA,NA,NA,NA,NA,NA,NA
"68","DzOPHyrG2XuVqKEvHCnN7w","Triangle Bar & Grill","Pittsburgh","PA",4.5,58,40.4175696,-79.8879525,"Nightlife","Bars","Sandwiches","Restaurants",NA,NA,NA,NA,NA
"69","nqRNOug4OMrYTTZg-qLxXA","Veltre's Pizza","Pittsburgh","PA",4.5,16,40.421054,-79.8862296,"Burgers","Pizza","Sandwiches","Restaurants",NA,NA,NA,NA,NA
"70","h3la53L9-OX_HlfeAySh0Q","Applebee's","Pittsburgh","PA",2.5,14,40.4273028,-79.8886844,"Bars","American (Traditional)","Burgers","Nightlife","Sports Bars","Restaurants",NA,NA,NA
"71","1vQLTKwmcmZXtNzfKEvMmA","Benihana","Pittsburgh","PA",3,52,40.392287,-80.070269,"Sushi Bars","Japanese","Restaurants",NA,NA,NA,NA,NA,NA
"72","hhNlQWaKqGbMPoeZHoL-IQ","Mad Mex - South Hills","Pittsburgh","PA",3.5,94,40.3906976,-80.070806,"Mexican","Tex-Mex","Restaurants",NA,NA,NA,NA,NA,NA
"73","SgQYRICpMdWCmY7wM2Cmcw","Max & Erma's","Pittsburgh","PA",3,20,40.3932957,-80.0656653,"American (Traditional)","Restaurants",NA,NA,NA,NA,NA,NA,NA
"74","sNmQJQWEVGheCnw5Tf4Phg","Panera Bread","Pittsburgh","PA",3.5,18,40.395932,-80.067397,"Soup","Sandwiches","Salad","Restaurants",NA,NA,NA,NA,NA
"75","jrSGpWnVJy8jqgN6XSC7Nw","Aracri's Greentree Inn","Pittsburgh","PA",3.5,15,40.4168413,-80.0454066,"Italian","American (New)","Seafood","Restaurants",NA,NA,NA,NA,NA
"76","KZXtzoI84iI1CEcAnD7OPA","Vincent's of Greentree","Pittsburgh","PA",3.5,52,40.4210420362253,-80.0501069553832,"Italian","Pizza","Restaurants",NA,NA,NA,NA,NA,NA
"77","zpNGtjBlIkDq_PLGSCPlAg","Olive Garden Italian Restaurant","Pittsburgh","PA",3.5,29,40.4198341,-80.0456525,"Bars","Salad","Wine Bars","Nightlife","Italian","Restaurants",NA,NA,NA
"78","FtjvnLhh51ZBYEpKAARaFQ","Soho","Pittsburgh","PA",3,94,40.4483207,-80.0043186,"American (New)","Restaurants",NA,NA,NA,NA,NA,NA,NA
"79","z4cCguoHdU48pj6sXMIzqg","Original Fish Market","Pittsburgh","PA",2.5,76,40.4441681,-79.994852,"Seafood","Restaurants",NA,NA,NA,NA,NA,NA,NA
"80","sbTF0cLKZH6_BP8BLARVDg","Bossa Nova","Pittsburgh","PA",2.5,29,40.4439388,-80.0006057,"Tapas Bars","Bars","Nightlife","Restaurants",NA,NA,NA,NA,NA
"81","OxIeMVcop5oxBUWANi-1Rw","Olive or Twist","Pittsburgh","PA",3.5,202,40.4429033,-80.0025614,"Bars","Cocktail Bars","Nightlife","Lounges","American (New)","Restaurants",NA,NA,NA
"82","imzKM9-mgN1Yk_RIXx3IgA","Sunseri Jimmy & Nino","Pittsburgh","PA",4,27,40.450964,-79.984628,"Food","Ethnic Food","Specialty Food","Restaurants","Italian",NA,NA,NA,NA
"83","IEHaU93HpEbdUO4z4bKzDw","Jo Jo's Restaurant","Pittsburgh","PA",3.5,18,40.4540368,-79.9814643,"American (Traditional)","Restaurants",NA,NA,NA,NA,NA,NA,NA
"84","NeUf9FyCCIN4MEseNyqkXQ","Primanti Bros.","Pittsburgh","PA",3.5,463,40.440287,-80.002585,"Bars","Restaurants","Nightlife","American (New)","Sports Bars","Sandwiches",NA,NA,NA
"85","buVALudg30kgkDusqB3yJw","Reyna Foods","Pittsburgh","PA",4,88,40.4514856,-79.9834035,"Food","Grocery","Mexican","Restaurants",NA,NA,NA,NA,NA
"86","wHi8ODv7TGmeUB02XoX-mA","Roland's Seafood Grill","Pittsburgh","PA",2.5,219,40.4505899,-79.9842832,"Seafood","Restaurants",NA,NA,NA,NA,NA,NA,NA
"87","WXpi9z1bqF9raZSW8z70Ow","Salonika Gyros","Pittsburgh","PA",3.5,44,40.4432077,-80.0021285,"Greek","Mediterranean","Restaurants",NA,NA,NA,NA,NA,NA
"88","DhDNNHZtaBxYNSqJz64ixg","La Gondola Pizzeria & Restaurant","Pittsburgh","PA",4.5,29,40.4400655,-80.0025144,"Restaurants","Italian",NA,NA,NA,NA,NA,NA,NA
"89","PxP19Rb88OQKiSMl2oWNsg","Christos Mediterranean Grille","Pittsburgh","PA",3,71,40.4432466658259,-80.0022544158648,"Greek","Mediterranean","Middle Eastern","Restaurants",NA,NA,NA,NA,NA
"90","9mwShpTgZofOujt4JfyGmw","Spaghetti Warehouse","Pittsburgh","PA",2.5,97,40.455916,-79.979271,"Restaurants","Italian",NA,NA,NA,NA,NA,NA,NA
"91","90Fqfzd8zD9AuuNBSv9lAg","Morton's The Steakhouse","Pittsburgh","PA",4,68,40.4423828265526,-80.0008723139762,"American (Traditional)","Restaurants",NA,NA,NA,NA,NA,NA,NA
"92","pvGT62T6Ci1LKOS9DL42pg","Peppi's","Pittsburgh","PA",4,24,40.436969,-80.0004543,"Sandwiches","Restaurants",NA,NA,NA,NA,NA,NA,NA
"93","A2XkbJ07hrR80t0EFgLikQ","Smithfield Cafe","Pittsburgh","PA",3.5,17,40.442558,-79.997214,"American (Traditional)","Cafes","Restaurants",NA,NA,NA,NA,NA,NA
"94","L5387MoRyx9orlRyYfCSPA","Andy's Sushi Bar","Pittsburgh","PA",4,44,40.450111,-79.9858749,"Sushi Bars","Restaurants",NA,NA,NA,NA,NA,NA,NA
"95","dHDi4wCcjsOR6vcZ8oOIoA","Sushi Kim Restaurant","Pittsburgh","PA",3,110,40.4464777,-79.9916741,"Korean","Sushi Bars","Restaurants",NA,NA,NA,NA,NA,NA
"96","41CXLCeB8z2oNdIOvnrzIA","Redfin Blues","Pittsburgh","PA",2.5,68,40.4634021,-79.9776298,"Seafood","Restaurants",NA,NA,NA,NA,NA,NA,NA
"97","l2gPB9mqiHSbpwSUa7zrjg","F. Tambellini Ristorante","Pittsburgh","PA",2,16,40.443577,-80.000162,"Restaurants","Italian",NA,NA,NA,NA,NA,NA,NA
"98","l-OmDgEd4QkZpyXVpkp2yA","Villa Reale Pizzeria & Restaurant","Pittsburgh","PA",3,26,40.4421419,-79.996955,"Pizza","Restaurants",NA,NA,NA,NA,NA,NA,NA
"99","0FgwBx7pgmNdUtsd_T8UYQ","Ruths Chris Steak House","Pittsburgh","PA",4,77,40.4394267,-80.0038037,"Steakhouses","Restaurants",NA,NA,NA,NA,NA,NA,NA
"100","SzHTdZR3yY1WBYUxkVxmUQ","Papa J's Centro","Pittsburgh","PA",3,18,40.4389116,-80.0032374,"Restaurants","Italian",NA,NA,NA,NA,NA,NA,NA
"101","xgcZN3F2f9LxLASQK_xzhw","Smallman Street Deli","Pittsburgh","PA",4,26,40.4582377,-79.97509,"Delis","Restaurants",NA,NA,NA,NA,NA,NA,NA
"102","uUorjstNslr3gkIsVGtQAg","Max & Erma's Restaurants","Pittsburgh","PA",3,13,40.4431765,-80.0042813,"American (Traditional)","Restaurants",NA,NA,NA,NA,NA,NA,NA
"103","Bza-l75OiKcMRmTYILpyfQ","Wiener World","Pittsburgh","PA",3.5,22,40.442234451829,-79.997135407783,"Hot Dogs","Restaurants",NA,NA,NA,NA,NA,NA,NA
"104","1E53rS8afK2jiLod8Jwy7A","Fu Lai Chinese Restaurant","Pittsburgh","PA",2.5,24,40.4428479,-80.0031124,"Chinese","Restaurants",NA,NA,NA,NA,NA,NA,NA
"105","AH1PrZQDIdjpKgy1z8XxUg","Zorba's Gyros","Pittsburgh","PA",3.5,26,40.4387143,-79.9994904,"Greek","Sandwiches","Salad","Restaurants",NA,NA,NA,NA,NA
"106","XmdTkxKyJd7TuDLoiic1kg","Lidia's","Pittsburgh","PA",3.5,317,40.4484631,-79.9894086,"Bars","Restaurants","Nightlife","Italian",NA,NA,NA,NA,NA
"107","nBl_NeArpL08MpoghDiA_A","Ephesus Mediterranean Kitchen","Pittsburgh","PA",3.5,82,40.4398391118939,-80.0028862631704,"Pizza","Restaurants",NA,NA,NA,NA,NA,NA,NA
"108","J011r7mUV1QhgLJ7GkrtMw","Peppi's","Pittsburgh","PA",4,45,40.450237,-79.985665,"Burgers","Restaurants",NA,NA,NA,NA,NA,NA,NA
"109","-KQ283hJkBO12u8XOrlCcQ","Original Oyster House","Pittsburgh","PA",3,99,40.4410134,-80.0019815,"Seafood","Restaurants",NA,NA,NA,NA,NA,NA,NA
"110","SvoJ3Y3uqDfB4iGUaWXh8Q","Pizza Parma","Pittsburgh","PA",3,40,40.44389,-79.9985899,"Pizza","Restaurants",NA,NA,NA,NA,NA,NA,NA
"111","6xEl2PDJulIp1PfWqa7-aA","Mullaneys Harp and Fiddle","Pittsburgh","PA",3.5,33,40.4534271,-79.9809286,"Pubs","Irish","Nightlife","Bars","Restaurants",NA,NA,NA,NA
"112","GQloL8yRHymE0SGZq-B0zQ","My Ngoc Restaurant","Pittsburgh","PA",3,12,40.4519288,-79.9824216,"Vietnamese","Restaurants",NA,NA,NA,NA,NA,NA,NA
"113","Lm_mR5xDF91OeZw97ch41g","The Lemon Grass Cafe","Pittsburgh","PA",2.5,29,40.4432622,-80.0026232,"Thai","Restaurants",NA,NA,NA,NA,NA,NA,NA
"114","KnlNwiIELDWAR686Bk2WJg","China House","Pittsburgh","PA",4,17,40.462831,-79.9516804,"Chinese","Restaurants",NA,NA,NA,NA,NA,NA,NA
"115","XzaJf6WzpU7RsXTXzx72Xg","Cafe Sam","Pittsburgh","PA",4,57,40.456227,-79.940241,"American (New)","Restaurants",NA,NA,NA,NA,NA,NA,NA
"116","PTS4MxQel-xzj5qWxVn3LQ","Angelo's Pizzeria","Pittsburgh","PA",3.5,51,40.4608026,-79.9479065,"Pizza","Restaurants",NA,NA,NA,NA,NA,NA,NA
"117","IvgKdlte_JNdd17XRxkOrg","Graziano's Pizzeria","Pittsburgh","PA",3.5,24,40.4659283,-79.9548907,"Pizza","Restaurants",NA,NA,NA,NA,NA,NA,NA
"118","bDK_jzy3Shx7jfn8_plNoA","Pizza Italia","Pittsburgh","PA",4,31,40.4626986,-79.9515229,"Pizza","Restaurants",NA,NA,NA,NA,NA,NA,NA
"119","PhIGoo9g6GBrqgH_6yZXXQ","People's Indian Restaurant","Pittsburgh","PA",4,74,40.464942,-79.9412135,"Indian","Restaurants",NA,NA,NA,NA,NA,NA,NA
"120","uBW3PIKqc-_eyG1_vdJn1w","Pho Minh","Pittsburgh","PA",4,68,40.4653958,-79.9445114,"Vietnamese","Restaurants",NA,NA,NA,NA,NA,NA,NA
"121","DsxLIr-b6WlDn9YNsVBu_A","Groceria Italiana","Pittsburgh","PA",4.5,30,40.4618603,-79.948546,"Food","Grocery","Delis","Restaurants",NA,NA,NA,NA,NA
"122","FD6OocZdFUfE2J5H0WN4fA","Armand's Bar","Pittsburgh","PA",3.5,19,40.4614622,-79.9481741,"Nightlife","Bars","Sandwiches","Restaurants",NA,NA,NA,NA,NA
"123","LN3OCT1xOedbf65xKzFSNw","Taste of India","Pittsburgh","PA",4,88,40.4657149,-79.953504,"Indian","Restaurants",NA,NA,NA,NA,NA,NA,NA
"124","tQpYnf3P3Q_OQLYYJvlV-A","Nico's Recovery Room","Pittsburgh","PA",3.5,24,40.4636708,-79.948991,"Bars","American (Traditional)","Nightlife","Restaurants",NA,NA,NA,NA,NA
"125","KH6stvNdq_aV0HvKw8P5yA","Donatelli's Italian Food Center","Pittsburgh","PA",3.5,22,40.4620697,-79.9493553,"Food","Grocery","Delis","Restaurants",NA,NA,NA,NA,NA
"126","dxCqGkhtXq-9fYEsX7Mf6Q","Tram's Kitchen","Pittsburgh","PA",4,231,40.4653491,-79.955948,"Vietnamese","Restaurants",NA,NA,NA,NA,NA,NA,NA
"127","--UE_y6auTgq3FXlvUMkbw","Ritters Diner","Pittsburgh","PA",3.5,146,40.456385,-79.9412291,"Breakfast & Brunch","American (Traditional)","Diners","Restaurants",NA,NA,NA,NA,NA
"128","YTqSkgOiiI9HG3hNH7ovfg","Lombardozzi's Restaurant","Pittsburgh","PA",3.5,26,40.4606393,-79.9471799,"Seafood","Restaurants","Italian",NA,NA,NA,NA,NA,NA
"129","vgXE1I7c9ElcfYyZfQiN1Q","Tessaro's","Pittsburgh","PA",4,292,40.4627572,-79.9506735,"Burgers","American (Traditional)","Steakhouses","Restaurants",NA,NA,NA,NA,NA
"130","-Nanlb7SYXObqQ6dZ49UOg","Pleasure Bar and Restaurant","Pittsburgh","PA",3,60,40.461739,-79.9486639,"Bars","Restaurants","Nightlife","Italian",NA,NA,NA,NA,NA
"131","3zgswf_NfBJpeAoWeTkgMA","Silky's Pub","Pittsburgh","PA",4,54,40.458267,-79.942274,"Pubs","Bars","American (Traditional)","Nightlife","Restaurants",NA,NA,NA,NA
"132","uOwuJJhGaiAzuaDY7-o14g","Boston Market","Pittsburgh","PA",3.5,14,40.4555475,-79.9415246,"Event Planning & Services","American (Traditional)","Caterers","Comfort Food","Restaurants",NA,NA,NA,NA
"133","7XXmky6YYjsvKFwho_eavg","Lot 17","Pittsburgh","PA",4,73,40.4625543,-79.950173,"Bars","American (Traditional)","Nightlife","Restaurants",NA,NA,NA,NA,NA
"134","o_wRqOpli9kyZGXlJtLLdA","The Bloomfield Sandwich Shop","Pittsburgh","PA",4,41,40.462632,-79.950246,"Breakfast & Brunch","Sandwiches","Restaurants",NA,NA,NA,NA,NA,NA
"135","5MChfa-jZfMo3vBpolkSbw","Alexander's Italian Bistro","Pittsburgh","PA",3.5,91,40.458394,-79.9436629,"Restaurants","Italian",NA,NA,NA,NA,NA,NA,NA
"136","sxeuOMBRllOHXJTaUlI9kQ","Thai Cuisine","Pittsburgh","PA",4,179,40.4625496053045,-79.9497600693115,"Thai","Restaurants",NA,NA,NA,NA,NA,NA,NA
"137","ptmsW2SSeFD2I6vspJs0lQ","The Getaway Café","Pittsburgh","PA",3,38,40.384633,-80.015649,"American (New)","Restaurants",NA,NA,NA,NA,NA,NA,NA
"138","r8jeeS3k_diihMDSu9IjlA","Fiori's Pizzaria","Pittsburgh","PA",4.5,189,40.405245,-80.018538,"Italian","Pizza","Restaurants",NA,NA,NA,NA,NA,NA
"139","cH8I7JgPXcrcutT1a3YrjQ","It's Greek To Me","Pittsburgh","PA",4.5,21,40.3919796,-80.0173011,"Greek","Restaurants",NA,NA,NA,NA,NA,NA,NA
"140","dQjaHoo89bLymdMm4S5_1g","Moonlite Cafe","Pittsburgh","PA",4.5,20,40.3955323,-80.0228158,"Restaurants","Italian",NA,NA,NA,NA,NA,NA,NA
"141","gCiKiqPGAC_ZVt5bBcwnrw","Pitaland","Pittsburgh","PA",4.5,58,40.3948658,-80.0220857,"Bakeries","Food","Cafes","Restaurants",NA,NA,NA,NA,NA
"142","UjJMQguryo1jypomvOCZgg","Bellisario's Pizza Palace","Pittsburgh","PA",3.5,21,40.3830261,-80.0153449,"Italian","Pizza","Restaurants",NA,NA,NA,NA,NA,NA
"143","vWnwaD-kykqiEc2Q0hbYsw","McDonald's","Pittsburgh","PA",2,11,40.3988343,-80.026459,"Burgers","Fast Food","Restaurants",NA,NA,NA,NA,NA,NA
"144","cESul2ojJOjadz-7BKB5eg","Amels","Pittsburgh","PA",4,52,40.3830261,-80.0153449,"Middle Eastern","Mediterranean","Restaurants",NA,NA,NA,NA,NA,NA
"145","hbFCv2Rginf9zjai-lKUNg","Sesame Inn Chinese Restaurant","Pittsburgh","PA",3.5,50,40.3796549064882,-80.0448643437995,"Chinese","Restaurants",NA,NA,NA,NA,NA,NA,NA
"146","vs3UrHaSnzFOxmFU2UAfxQ","China Gate","Pittsburgh","PA",2.5,15,40.357213,-80.0520951,"Chinese","Restaurants",NA,NA,NA,NA,NA,NA,NA
"147","6-rJjW6ITl5o_FliiNgZRA","Il Pizzaiolo","Pittsburgh","PA",4,194,40.380192,-80.044459,"Italian","Pizza","Restaurants",NA,NA,NA,NA,NA,NA
"148","mPlWLIA4pkHMRtlQDm6UyQ","Little Tokyo","Pittsburgh","PA",4,127,40.3818121,-80.0444905,"Sushi Bars","Japanese","Restaurants",NA,NA,NA,NA,NA,NA
"149","sa3xqElJEv97MazozLeszw","Mineo's Pizza House","Pittsburgh","PA",4,36,40.3798256,-80.0446104,"Pizza","Restaurants",NA,NA,NA,NA,NA,NA,NA
"150","MkrQV_nyxyC1F5ut5KxDMQ","Panera Bread","Mount Lebanon","PA",3.5,12,40.357357209358,-80.0519013404846,"Soup","Sandwiches","Salad","Restaurants",NA,NA,NA,NA,NA
"151","jJfTh2O3M2Q716akd9Dr9w","The Saloon of Mt. Lebanon","Pittsburgh","PA",3,42,40.3821568,-80.0441272,"Bars","American (Traditional)","Burgers","Nightlife","Sports Bars","Restaurants",NA,NA,NA
"152","9SPwF-vRgtuHxciFxv5YLA","Soba","Pittsburgh","PA",4,237,40.4571033,-79.9296345,"Korean","Asian Fusion","Japanese","Restaurants",NA,NA,NA,NA,NA
"153","Cy9XgM3ZG2jZ1ganvolb6Q","Umi","Pittsburgh","PA",4,112,40.4571033,-79.9296345,"Japanese","Restaurants",NA,NA,NA,NA,NA,NA,NA
"154","rgmptwPbBH1wLpiBHcbIhA","Harris Grill","Pittsburgh","PA",3.5,262,40.455955,-79.931338,"Bars","American (Traditional)","Nightlife","Diners","Restaurants",NA,NA,NA,NA
"155","i_nkxbd7feg44QkdbG05UA","The Elbow Room","Pittsburgh","PA",3,87,40.4516538606323,-79.9327178368915,"American (New)","Restaurants",NA,NA,NA,NA,NA,NA,NA
"156","vSZDiKiF8vf9zt_BcDL7GQ","William Penn Tavern","Pittsburgh","PA",3.5,61,40.451445220945,-79.933732551313,"Bars","Restaurants","American (Traditional)","Sports Bars","Nightlife",NA,NA,NA,NA
"157","DkX3YoxhH4uADsgVgQThew","Cappy's Cafe","Pittsburgh","PA",3,51,40.45109,-79.9343681,"Bars","American (Traditional)","Nightlife","Restaurants",NA,NA,NA,NA,NA
"158","sQWSHCIH_HUT4HUXaxDaBA","Bruegger's Bagels","Pittsburgh","PA",3,23,40.4507424,-79.9357149,"Food","Sandwiches","Bagels","Breakfast & Brunch","Restaurants",NA,NA,NA,NA
"159","rUQfZOengMpXFkLvJrNJ3g","The Inn on Negley","Pittsburgh","PA",4.5,26,40.453359,-79.931454,"Food","Tea Rooms","Breakfast & Brunch","Bed & Breakfast","Hotels & Travel","Restaurants",NA,NA,NA
"160","Oq5MyNxNi-xuXdPOWR9O_g","Doc's Place","Pittsburgh","PA",3,21,40.4509182,-79.9338159,"Bars","Pizza","Nightlife","Restaurants",NA,NA,NA,NA,NA
"161","xgK6AAhJ-cYBUCSaLzgTuw","Girasole Restaurant","Pittsburgh","PA",3.5,217,40.4511949,-79.9346096,"Restaurants","Italian",NA,NA,NA,NA,NA,NA,NA
"162","Z-BI5HJmC2HcpiVuXwVM3A","La Feria","Pittsburgh","PA",4,75,40.451723,-79.932833,"Peruvian","Latin American","Restaurants",NA,NA,NA,NA,NA,NA
"163","kxZIebwbpe_ddry6EKMdCg","Village Pizza Bar & Grill","Pittsburgh","PA",4,16,40.4504931,-79.9351109,"Pizza","Restaurants",NA,NA,NA,NA,NA,NA,NA
"164","TxKmAsKQjND5vbhBdUSyIA","P&G's Pamela's Diner","Pittsburgh","PA",4,222,40.4515828357537,-79.9328698390366,"Breakfast & Brunch","Restaurants",NA,NA,NA,NA,NA,NA,NA
"165","cmGR1HS9ms233roSllcglw","Crepes Parisiennes","Pittsburgh","PA",4,73,40.4516361,-79.9333919,"Breakfast & Brunch","Creperies","French","Restaurants",NA,NA,NA,NA,NA
"166","mXHBxHrAJPnPWnm_OKuZTQ","Wendy's","Pittsburgh","PA",2.5,20,40.4571266518283,-79.9377973675255,"Burgers","Fast Food","Restaurants",NA,NA,NA,NA,NA,NA
"167","Q9BXMPu2HnRDMq9X_2rHrQ","China Palace","Pittsburgh","PA",3,83,40.450866,-79.933919,"Fast Food","Restaurants",NA,NA,NA,NA,NA,NA,NA
"168","jeS38QWMVkA6S-4lMi1Frg","Walnut Grill","Pittsburgh","PA",3,32,40.4508247,-79.9334641,"American (New)","Restaurants",NA,NA,NA,NA,NA,NA,NA
"169","q5g_zeAdwsZQp0p9GPnTJw","Nick's Pizza","Castle Shannon","PA",3,13,40.3695859,-80.0348341,"Pizza","Restaurants",NA,NA,NA,NA,NA,NA,NA
"170","7QBJDNVH6VPAStSvOM_lZA","Silver Palace Chinese Restaurant","Pittsburgh","PA",4,14,40.3773782,-80.0037775,"Chinese","Restaurants",NA,NA,NA,NA,NA,NA,NA
"171","WrP8KeKTlWcjqQPj2DJKGQ","Thee Olde Place Inn","Pittsburgh","PA",4,13,40.3517314,-79.9612707,"American (New)","Diners","Restaurants",NA,NA,NA,NA,NA,NA
"172","-tcf1WSfc2iNRf75AMW6pw","Uncle Sam's Submarines","Pittsburgh","PA",3.5,28,40.4890230106417,-79.8926940961875,"Sandwiches","Restaurants",NA,NA,NA,NA,NA,NA,NA
"173","dwz55gqPZwSBD74yFFb27g","Tai Pei","Pittsburgh","PA",3,51,40.487652925642,-79.880616356427,"Sushi Bars","Taiwanese","Chinese","Restaurants",NA,NA,NA,NA,NA
"174","rEpubmz577MOhpDmWPH1uw","Thai Place Restaurant","Pittsburgh","PA",3.5,22,40.4869455,-79.8857437,"Thai","Restaurants",NA,NA,NA,NA,NA,NA,NA
"175","ufyh6h4GsR-RYY2lC_Iz7w","Starlite Lounge","Pittsburgh","PA",3,22,40.493969,-79.860283,"Bars","American (Traditional)","Nightlife","Lounges","Restaurants",NA,NA,NA,NA
"176","9VtaTbTKVK9sQVy4j2RO-w","Bob's Garage","Pittsburgh","PA",3.5,24,40.4895782,-79.8723566,"American (New)","Restaurants",NA,NA,NA,NA,NA,NA,NA
"177","PFAOxw4Gl8gm7PGWvohCWg","Applebee's","Pittsburgh","PA",3,17,40.3903858,-80.0708968,"Bars","American (Traditional)","Burgers","Nightlife","Sports Bars","Restaurants",NA,NA,NA
"178","W-2Tuk4uWYm5BsdlWju8wg","The Captain's Cap","Belmont","NC",3.5,14,35.2534228,-81.0266346,"Seafood","Restaurants",NA,NA,NA,NA,NA,NA,NA
"179","c-Pa13Lq1eB0VwLVoyJ7lg","Sub Corral Sandwich Shop","Belmont","NC",2.5,13,35.25102656664,-81.0253293811732,"Sandwiches","Restaurants",NA,NA,NA,NA,NA,NA,NA
"180","qJTHaHFKQIKXKX3I17Nw9w","McDonald's","Belmont","NC",2.5,14,35.2517326,-81.0431716,"Burgers","Fast Food","Restaurants",NA,NA,NA,NA,NA,NA
"181","JkF2CPy63ivoK1FUqprQ7w","New China","Belmont","NC",3.5,12,35.2527471,-81.0422163,"Chinese","Restaurants",NA,NA,NA,NA,NA,NA,NA
"182","OkV0BMQxRRYJ5t5sbeU93A","Belmont Food & Beverage","Belmont","NC",3.5,14,35.2445503,-81.0374577,"Restaurants","American (New)","Event Planning & Services","Caterers",NA,NA,NA,NA,NA
"183","sJtGRBWYUj013nkFA4Hrdg","Tony's Pizza","Huntersville","NC",4.5,74,35.357556,-80.868144,"Italian","Pizza","Sandwiches","Restaurants",NA,NA,NA,NA,NA
"184","qYuSoVBS_1i_btLzFefDeg","New York Pizza Express","Matthews","NC",3.5,23,35.084143,-80.697074,"Pizza","Restaurants",NA,NA,NA,NA,NA,NA,NA
"185","2VuPoaFPktvtAqTX_Fzc-A","El Valle Mexican Restaurant","Mount Holly","NC",3,15,35.3035634,-81.0272196,"Mexican","Restaurants",NA,NA,NA,NA,NA,NA,NA
"186","jyF0rwmQEIdDWVtP5vlf3w","The Brightstar Grill","Mount Holly","NC",4,31,35.2912262,-81.0241729,"American (Traditional)","Restaurants",NA,NA,NA,NA,NA,NA,NA
"187","lX3XYcMWoRlHjrmkoGNefQ","TLC Wings & Grill","Pineville","NC",4,29,35.086948,-80.871878,"Chicken Wings","Restaurants",NA,NA,NA,NA,NA,NA,NA
"188","2_0P2AmSSFtPgddio0MgYA","Waldhorn Restaurant","Pineville","NC",4.5,175,35.076521,-80.882357,"German","Restaurants",NA,NA,NA,NA,NA,NA,NA
"189","BO0zz8gort7o-6KuecIv3Q","Red Lobster","Pineville","NC",2.5,39,35.0866339,-80.87693,"Seafood","American (Traditional)","Restaurants",NA,NA,NA,NA,NA,NA
"190","_Bz6YWNI5bi0gqQI4GLvqQ","Jason's Deli","Pineville","NC",4,50,35.0884041,-80.8789436,"Delis","Sandwiches","Salad","Restaurants",NA,NA,NA,NA,NA
"191","SVKC_-gIQFkHElZ6bFsE6g","Buca di Beppo Italian Restaurant","Pineville","NC",2.5,96,35.0852900556099,-80.8798456192017,"Restaurants","Pizza","Italian",NA,NA,NA,NA,NA,NA
"192","l2ynPEBj9S_yN9gjg32tBA","Taco Bell","Pineville","NC",3.5,12,35.084106,-80.878954,"Fast Food","Mexican","Tex-Mex","Restaurants",NA,NA,NA,NA,NA
"193","AUDuCSWYzzRP3H2w7TxtuQ","LongHorn Steakhouse","Pineville","NC",3.5,49,35.088633,-80.8770119,"American (Traditional)","Steakhouses","Barbeque","Restaurants",NA,NA,NA,NA,NA
"194","Gw5POFxBRoJxN_ZYhk6lgQ","Bruegger's Bagels","Charlotte","NC",4,17,35.089035,-80.8670549,"Food","Sandwiches","Bagels","Breakfast & Brunch","Restaurants",NA,NA,NA,NA
"195","DE_11y6_vCmPBlbeYskh-Q","Applebee's","Pineville","NC",2.5,15,35.0857058,-80.8789517,"Bars","American (Traditional)","Nightlife","Steakhouses","Sports Bars","Restaurants",NA,NA,NA
"196","4WsTFTH8GgnyFHwrH9nHzA","Olive Garden Italian Restaurant","Pineville","NC",3,75,35.086418,-80.877383,"Bars","Salad","Wine Bars","Nightlife","Italian","Restaurants",NA,NA,NA
"197","QMZe84KFyZy0IlCBb1v91A","Tony Roma's","Pineville","NC",3,14,35.0855733,-80.8809029,"American (Traditional)","Barbeque","Restaurants",NA,NA,NA,NA,NA,NA
"198","PVooCeYIrp9E2rtrL4R98g","Kopper Kettle Restaurant","Pineville","NC",4.5,18,35.114191,-80.912923,"American (Traditional)","Restaurants",NA,NA,NA,NA,NA,NA,NA
"199","5p3Tqyp19UowO0-dAFvxMw","China Buffet","Pineville","NC",3,38,35.08442,-80.884608,"Buffets","Chinese","Restaurants",NA,NA,NA,NA,NA,NA
"200","T1jYZFB_7cqdhuvzpxfFWQ","I Hop","Pineville","NC",3,21,35.085568,-80.884822,"Restaurants",NA,NA,NA,NA,NA,NA,NA,NA
"201","Zm9uQ4SYpZzUb3epDMeb7A","China Express Chinese Restaurant","Pineville","NC",4,12,35.082645,-80.885621,"Chinese","Restaurants",NA,NA,NA,NA,NA,NA,NA
"202","LT0AgHTpDifuHSXgyLmJwg","Green's Lunch","Charlotte","NC",3.5,44,35.228193,-80.846592,"American (Traditional)","Hot Dogs","Breakfast & Brunch","Restaurants",NA,NA,NA,NA,NA
"203","USdRzNk14UdjZWFgBJb0wA","McNinch House Restaurant","Charlotte","NC",4,40,35.231679,-80.8396248,"American (New)","Southern","French","Restaurants",NA,NA,NA,NA,NA
"204","ePP0Eqz8JKSbtdt2phiB4A","Alexander Michael's","Charlotte","NC",4.5,242,35.23361,-80.840783,"Cajun/Creole","American (Traditional)","Bars","Pubs","Nightlife","Restaurants",NA,NA,NA
"205","ASwN3Ih0Eh1oH0npLbzVjA","Showmars Third Street","Charlotte","NC",3.5,19,35.2263469,-80.845804,"Greek","American (Traditional)","Mediterranean","Restaurants",NA,NA,NA,NA,NA
"206","Lt9o2RmacVY2L-IWLA8uTg","Morton's The Steakhouse","Charlotte","NC",4,80,35.2285596702726,-80.8452783836765,"American (Traditional)","Restaurants",NA,NA,NA,NA,NA,NA,NA
"207","gpCtDCSXIoQx70cq9itfNA","Matt's Chicago Dog","Charlotte","NC",4,57,35.2240131,-80.8464728,"Burgers","Hot Dogs","Sandwiches","Restaurants",NA,NA,NA,NA,NA
"208","-6JY1T0w4XETux5kGOj84g","Fox and Hound Smokehouse & Tavern","Charlotte","NC",3,42,35.228985,-80.839671,"Bars","Restaurants","American (Traditional)","Sports Bars","Nightlife",NA,NA,NA,NA
"209","WuCcv_Dyd_1B_1-4jwK7sQ","Rí Rá Irish Pub","Charlotte","NC",3.5,222,35.227987,-80.8414487,"Pubs","Irish","Nightlife","Bars","Restaurants",NA,NA,NA,NA
"210","rT-iPtIXMKj3dTcl87lbOw","Soho Bistro","Charlotte","NC",3.5,114,35.2274789983884,-80.8404318988323,"Chinese","Restaurants",NA,NA,NA,NA,NA,NA,NA
"211","vIXUw1cLG84-m8LzOg3f-w","Champions","Charlotte","NC",2.5,29,35.2279912,-80.843388,"Burgers","Bars","Restaurants","Sports Bars","Nightlife",NA,NA,NA,NA
"212","4glD2-evDFddHjQaEVpCPQ","Sushiya Japan","Charlotte","NC",4,48,35.0952753,-80.7791381,"Sushi Bars","Japanese","Restaurants",NA,NA,NA,NA,NA,NA
"213","ym9QwkmB5ZKTyj7q5huTDw","Rock Bottom Restaurant & Brewery","Charlotte","NC",3.5,234,35.2302318,-80.8394131,"Bars","American (Traditional)","Pubs","Nightlife","American (New)","Restaurants",NA,NA,NA
"214","QMX1ssofSveU3qhVAKLnXA","Fujiyama","Charlotte","NC",4,14,35.22533,-80.8461559,"Korean","Seafood","Japanese","Restaurants",NA,NA,NA,NA,NA
"215","XzhsJecsCYj-Wc32zOWqmg","Simmons Restaurant","Charlotte","NC",3.5,15,35.2340477,-80.841786,"Southern","Restaurants",NA,NA,NA,NA,NA,NA,NA
"216","9fxTX1uyyYF4ugx68AG2sg","Presto Bar & Grill","Charlotte","NC",3,30,35.230158,-80.8473,"American (New)","Southern","Restaurants",NA,NA,NA,NA,NA,NA
"217","df7cda6f5lMADGnoVHd8pg","Ratcliffe On The Green","Charlotte","NC",4,17,35.2240131,-80.8464728,"American (New)","Restaurants",NA,NA,NA,NA,NA,NA,NA
"218","Heon0PS3J4RGmMa-VflCuA","Salsarita's Fresh Cantina","Charlotte","NC",4,23,35.2264881,-80.8427103,"Fast Food","Mexican","Restaurants",NA,NA,NA,NA,NA,NA
"219","-Am2JVkb7nwvBAUwSugG0A","Monticello Restaurant","Charlotte","NC",3.5,14,35.2288472,-80.8412724,"Breakfast & Brunch","American (New)","Southern","Restaurants",NA,NA,NA,NA,NA
"220","mpDxBBGywUE6GRRKja3sBA","Mert's Heart & Soul","Charlotte","NC",3.5,652,35.2273178,-80.8401304,"Soul Food","Southern","Restaurants",NA,NA,NA,NA,NA,NA
"221","6ICGve6UyGPuLaGrKQBVuw","Jersey Mike's Subs","Charlotte","NC",4,17,35.226995,-80.844191,"Delis","Fast Food","Sandwiches","Restaurants",NA,NA,NA,NA,NA
"222","NTfUFk8GyOLL1uPbEO-pVg","Mimosa Grill","Charlotte","NC",4,321,35.224456,-80.84547,"American (New)","Southern","Restaurants",NA,NA,NA,NA,NA,NA
"223","e8kqqWU9247Nn5VAF5sDkQ","Fuel Pizza Cafe","Charlotte","NC",2.5,42,35.227822,-80.8411478,"Pizza","Restaurants",NA,NA,NA,NA,NA,NA,NA
"224","z24h6ZYnZiWjlDTuLXG9jw","Luce Restaurant & Bar","Charlotte","NC",4,139,35.227822,-80.8411478,"Restaurants","Italian",NA,NA,NA,NA,NA,NA,NA
"225","WYnveDiSEXLCeNkLZrXibQ","Phil's Deli New York Deli & Tavern","Charlotte","NC",3,12,35.2278131,-80.8414916,"Bars","Food","Beer, Wine & Spirits","Delis","Nightlife","Sports Bars","Restaurants",NA,NA
"226","EwuvZCcVHkICgTbqCEjikA","Hartigan's Irish Pub","Charlotte","NC",3,21,35.2283983,-80.8547192,"Pubs","Bars","American (Traditional)","Nightlife","Restaurants",NA,NA,NA,NA
"227","6SxAOEXHzNjWQMQ9Nnos3A","Phil's Tavern","Charlotte","NC",2.5,24,35.2278131,-80.8414916,"Dive Bars","Bars","Nightlife","Delis","Restaurants",NA,NA,NA,NA
"228","kAid56AY_laxGYslMdsYJw","Brixx Wood Fired Pizza","Charlotte","NC",3.5,106,35.2274621,-80.8388937,"Pizza","Restaurants",NA,NA,NA,NA,NA,NA,NA
"229","CChwRoYVXA3QZulS8a6xOQ","The Capital Grille","Charlotte","NC",4.5,267,35.2283137726241,-80.8419989013275,"Bars","Seafood","Wine Bars","Nightlife","Steakhouses","Restaurants",NA,NA,NA
"230","t5l-H2KdY4MQgLDMENz9WQ","Stool Pigeons Coop & Grill","Charlotte","NC",3.5,27,35.2292799,-80.8424708,"Bars","American (Traditional)","Pubs","Nightlife","Sports Bars","Restaurants",NA,NA,NA
"231","C9CF7p53Y0L5ErKRhhFhng","Savannah Red","Charlotte","NC",4,38,35.2279912,-80.843388,"Soul Food","American (New)","Restaurants",NA,NA,NA,NA,NA,NA
"232","nkNdTqpv1m5GBKx8xrpluw","Arthur's At Belk","Charlotte","NC",4.5,36,35.153939,-80.8317551,"Burgers","Sandwiches","Restaurants",NA,NA,NA,NA,NA,NA
"233","LUylwiKNsS7_iumytRgAmw","Bruegger's Bagels","Charlotte","NC",3,25,35.176106,-80.799651,"Food","Sandwiches","Bagels","Breakfast & Brunch","Restaurants",NA,NA,NA,NA
"234","TLrX4FECQDFz-E45TI_9ow","LaVecchia's Seafood Grille","Charlotte","NC",3.5,45,35.227822,-80.8411478,"Seafood","Restaurants",NA,NA,NA,NA,NA,NA,NA
"235","e5J3s-xxs1S6PPHJhldBEA","Cosmos Cafe","Charlotte","NC",3,60,35.2278411,-80.8394745,"Bars","Sushi Bars","Nightlife","Lounges","American (New)","Restaurants",NA,NA,NA
"236","qqVmZ3H7j06pcJFaSA4pcg","Tic Toc Diner & Catering","Charlotte","NC",4.5,12,35.230441,-80.838086,"Food","Coffee & Tea","Cafes","Diners","Restaurants",NA,NA,NA,NA
"237","4-B5ou1FbGVjVEQd3FAoIA","Sub One Hoagie House","Charlotte","NC",4.5,32,35.2340477,-80.841786,"Sandwiches","Restaurants",NA,NA,NA,NA,NA,NA,NA
"238","376PDtBpGi74Os08TvCkhg","French Quarter","Charlotte","NC",3,60,35.225996,-80.847022,"French","Restaurants",NA,NA,NA,NA,NA,NA,NA
"239","G5dIek0rXPTHlqlJpCNmpw","Aquavina","Charlotte","NC",3,19,35.2240131,-80.8464728,"American (New)","Restaurants",NA,NA,NA,NA,NA,NA,NA
"240","v96eOvQGYHukDu_UWqNl4A","Gardenia Restaurant","Charlotte","NC",4,17,35.239174,-80.886314,"American (Traditional)","Southern","Restaurants",NA,NA,NA,NA,NA,NA
"241","b856Q36EWKbwbm_XdJER8Q","Charlotte Cafe","Charlotte","NC",3,22,35.0952753,-80.7791381,"Breakfast & Brunch","American (Traditional)","Southern","Restaurants",NA,NA,NA,NA,NA
"242","wpFOZbONc7qUYz6YmBfKuQ","Sonny's BBQ","Charlotte","NC",3,73,35.1629379,-80.8865749,"American (New)","Barbeque","Restaurants",NA,NA,NA,NA,NA,NA
"243","eaqJQP6bp7rQJQt5KqfvxQ","Blue Restaurant & Bar","Charlotte","NC",3.5,174,35.227392,-80.840592,"Wine Bars","Bars","Mediterranean","Nightlife","Restaurants",NA,NA,NA,NA
"244","hBscDTusN57Ai0SnkQK8Sg","Fujo","Charlotte","NC",3.5,95,35.2236883,-80.8443597,"Asian Fusion","Sushi Bars","Restaurants",NA,NA,NA,NA,NA,NA
"245","CDH2dyRcJUDPM1xj4AD0lQ","Austin's Caribbean Cuisine","Charlotte","NC",4,21,35.211879,-80.833826,"Caribbean","Restaurants",NA,NA,NA,NA,NA,NA,NA
"246","JgGpBGMAb1Nc2Z5jVIwZMA","Emperor Chinese Restaurant","Charlotte","NC",2,21,35.2120931,-80.8337738,"Chinese","Restaurants",NA,NA,NA,NA,NA,NA,NA
"247","L9D9xHVgCo71ZoO1ZBGOsQ","Adams 7th Street Market","Charlotte","NC",4,16,35.216101,-80.822107,"Delis","Restaurants",NA,NA,NA,NA,NA,NA,NA
"248","uDoTFFud2mXE3VT1Jt9L5A","The Melting Pot","Charlotte","NC",4.5,90,35.206798,-80.8351239,"Fondue","Salad","French","Restaurants",NA,NA,NA,NA,NA
"249","FRYCe6Yc0rPzzloSWSsl1g","Art's Barbecue & Deli","Charlotte","NC",3.5,23,35.213685,-80.844951,"Delis","Barbeque","Restaurants",NA,NA,NA,NA,NA,NA
"250","MQnNtW1lHS-eid3QNUoUIw","Mama Ricotta's Restaurant","Charlotte","NC",4,270,35.2094516,-80.8355389,"Restaurants","Italian",NA,NA,NA,NA,NA,NA,NA
"251","n2MTry6EWZKwDxxm9-povQ","Sub Station II","Charlotte","NC",4,14,35.2132244,-80.8182756,"Sandwiches","Restaurants",NA,NA,NA,NA,NA,NA,NA
"252","nuCgH96Tfe6CFXznvmKdhA","Maharani Indian Cuisine","Charlotte","NC",3,97,35.2066447334936,-80.8355569839478,"Pakistani","Indian","Restaurants",NA,NA,NA,NA,NA,NA
"253","MMNBgMQCdwyVoNaHg0h_QA","Cuisine Malaya","Charlotte","NC",3.5,158,35.2154777,-80.8285213,"Vegetarian","Sushi Bars","Asian Fusion","Restaurants",NA,NA,NA,NA,NA
"254","c9D0yUos-jGOZaUv7SgCFw","Jersey Mike's Subs","Charlotte","NC",3,15,35.2123711,-80.8171636,"Delis","Fast Food","Sandwiches","Restaurants",NA,NA,NA,NA,NA
"255","oYo5e7TUAYGRdx_0rjohww","Red Sea Restaurant & Bar","Charlotte","NC",4,33,35.215653858224,-80.8282980343933,"Ethiopian","Restaurants",NA,NA,NA,NA,NA,NA,NA
"256","l3mzaesyc90rxXt2d4HpTg","Papa John's Pizza","Charlotte","NC",2.5,14,35.2123823,-80.8275676,"Pizza","Restaurants",NA,NA,NA,NA,NA,NA,NA
"257","8PsQqhrAH5uqJ7HODOmXYg","Showmars - Seventh Street","Charlotte","NC",3,21,35.212005,-80.817991,"Greek","Restaurants",NA,NA,NA,NA,NA,NA,NA
"258","cibtubYc6gd8T6Y-nPPByw","Ho Ho Cherry House","Charlotte","NC",3.5,84,35.2123711,-80.8171636,"Chinese","Restaurants",NA,NA,NA,NA,NA,NA,NA
"259","nhPdxY-jbf-XVQ6Hq6qJPw","Snoop's Grill","Charlotte","NC",3.5,15,35.216323,-80.821777,"Food","Ice Cream & Frozen Yogurt","American (Traditional)","Restaurants",NA,NA,NA,NA,NA
"260","G3EsKzy3i-CvrEDjZzTV0g","Fortune Cookie","Charlotte","NC",3.5,38,35.215975,-80.828428,"Chinese","Restaurants",NA,NA,NA,NA,NA,NA,NA
"261","TwwD5FQSe0vk1Ecp89HjEw","Carpe Diem","Charlotte","NC",4.5,135,35.2140739,-80.826589,"American (New)","Restaurants",NA,NA,NA,NA,NA,NA,NA
"262","jTGQUWGIVvL-aY03C5BEmw","Cajun Queen","Charlotte","NC",4,374,35.2145334,-80.8211257,"Nightlife","Jazz & Blues","Cajun/Creole","Arts & Entertainment","Restaurants",NA,NA,NA,NA
"263","YbqNbrnOEk2T0qIBbTivuQ","Chicken Box Cafe","Charlotte","NC",4,50,35.2544169,-80.80088,"Soul Food","Southern","Restaurants",NA,NA,NA,NA,NA,NA
"264","OigTHfCur-D8Ne-bV1ngOg","Ranch House","Charlotte","NC",3.5,11,35.234463,-80.933905,"Steakhouses","Restaurants",NA,NA,NA,NA,NA,NA,NA
"265","rpq5pRzrVPXt9wKm17LV7Q","Yorkmont Cafe","Charlotte","NC",2.5,17,35.1902768,-80.9304829,"American (New)","Restaurants",NA,NA,NA,NA,NA,NA,NA
"266","X-uPUUV7xPiKivsQzJD-wg","Burger King","Charlotte","NC",2,35,35.220470492366,-80.9437250177216,"Burgers","Fast Food","Restaurants",NA,NA,NA,NA,NA,NA
"267","MCFxbw9hQYejyvg59T44TA","The World Famous Open Kitchen","Charlotte","NC",2.5,80,35.229312,-80.863368,"Restaurants","Italian",NA,NA,NA,NA,NA,NA,NA
"268","xopQn_MCE8bSBOyhsj6pVw","Pizza Hut","Charlotte","NC",1.5,15,35.2440597,-80.8919965,"Italian","Pizza","Chicken Wings","Restaurants",NA,NA,NA,NA,NA
"269","P4r-LsB1ldgvlgli40Yu-Q","McDonald's","Charlotte","NC",2,18,35.228855,-80.923791,"Burgers","Fast Food","Restaurants",NA,NA,NA,NA,NA,NA
"270","crKd3Kf3YYP8znwoMvcA-g","Niko's Grill","Charlotte","NC",3.5,14,35.221112,-80.920249,"Greek","Restaurants",NA,NA,NA,NA,NA,NA,NA
"271","tw3wtf5ou5TcuIvidn3cOQ","Carolina Family Restaurant","Charlotte","NC",4,24,35.228524,-80.914573,"Diners","Restaurants",NA,NA,NA,NA,NA,NA,NA
"272","M89wkxqAcXuVMtWh91BIjg","Mr G's","Charlotte","NC",4,20,35.2137529,-80.927661,"Greek","Barbeque","Restaurants",NA,NA,NA,NA,NA,NA
"273","diPvh48CJsNW0hsf9981ZA","Beauregards","Charlotte","NC",3,17,35.24309,-80.889326,"Italian","American (New)","Restaurants",NA,NA,NA,NA,NA,NA
"274","1AXQja1QV47FGU0Jp0CSxw","Bojangles' Famous Chicken 'n Biscuits","Charlotte","NC",3.5,15,35.2289881,-80.9258677,"Fast Food","Restaurants",NA,NA,NA,NA,NA,NA,NA
"275","xP-6TN10JA_7C6-V1-JOEQ","Waffle House","Charlotte","NC",3.5,23,35.2348254,-80.920439,"Breakfast & Brunch","Restaurants",NA,NA,NA,NA,NA,NA,NA
"276","cpxwd_iFG3Oh1LUMJn0rOQ","Bar-B-Q King","Charlotte","NC",3.5,105,35.2244824,-80.8891373,"Barbeque","Restaurants",NA,NA,NA,NA,NA,NA,NA
"277","4kM-mP7z1nP015R2Tlz1Tw","McDonald's","Charlotte","NC",2.5,25,35.1497403163914,-80.8333414793015,"Burgers","Fast Food","Restaurants",NA,NA,NA,NA,NA,NA
"278","hIQRiE3UsYH7UsrsDwJwLA","Harper's Restaurant","Charlotte","NC",3,130,35.1481072,-80.8318174,"Breakfast & Brunch","American (Traditional)","Restaurants",NA,NA,NA,NA,NA,NA
"279","WkD7OrSIHLzgOQo9wQHu-A","Rusty's Deli & Grille","Charlotte","NC",4,64,35.1169659300918,-80.8575681073039,"Delis","American (Traditional)","Sandwiches","Restaurants",NA,NA,NA,NA,NA
"280","CxGK5_GoIhG9798zYPsvfA","Monterrey","Charlotte","NC",3.5,48,35.089838,-80.868412,"Mexican","Restaurants",NA,NA,NA,NA,NA,NA,NA
"281","IKUVWL75eSoC71G2fBphmA","Taipei South","Charlotte","NC",4,60,35.0929099,-80.8592146,"Taiwanese","Chinese","Restaurants",NA,NA,NA,NA,NA,NA
"282","Y_OeiGhTm6ZEfZ1UQgM_wA","Musashi Japanese Restaurant","Charlotte","NC",4,119,35.0922425,-80.8589524,"Japanese","Restaurants",NA,NA,NA,NA,NA,NA,NA
"283","4CPrhBc4Ado90fj7PG6jrA","P.F. Chang's","Charlotte","NC",3,120,35.1465690192533,-80.8271107077599,"Gluten-Free","Asian Fusion","Chinese","Restaurants",NA,NA,NA,NA,NA
"284","1gKBusJMk66ypwEKF0vOAA","Palm Restaurant","Charlotte","NC",4,98,35.1468168,-80.8277649,"Seafood","Steakhouses","Restaurants",NA,NA,NA,NA,NA,NA
"285","s-cFWOk9LXXZCrm4lKpjEg","Baoding","Charlotte","NC",4,102,35.1473609,-80.833041,"Chinese","Restaurants",NA,NA,NA,NA,NA,NA,NA
"286","UzMMpUFwJhwUkHOyeXeWsQ","Original Pancake House","Charlotte","NC",4,143,35.1483931202698,-80.833416448883,"Breakfast & Brunch","American (Traditional)","Restaurants",NA,NA,NA,NA,NA,NA
"287","KLYI39LFvsPzS_2-j9qgIA","Showmars Emerywood","Charlotte","NC",3,12,35.157022,-80.875422,"American (New)","Restaurants",NA,NA,NA,NA,NA,NA,NA
"288","BOp3jcpYy31M85H1DLnEEw","Upstream","Charlotte","NC",4,170,35.145671,-80.825569,"Seafood","Sushi Bars","Restaurants",NA,NA,NA,NA,NA,NA
"289","Lw-01HQDswygHvAZfwkpxA","Showmars - Park Cedar","Charlotte","NC",4.5,23,35.093967,-80.865522,"Greek","American (Traditional)","Fast Food","Restaurants",NA,NA,NA,NA,NA
"290","UFvogJEUiLSJwyx2LSz2uQ","Kabob House","Charlotte","NC",3,14,35.172028,-80.746801,"Bars","Persian/Iranian","Middle Eastern","Nightlife","Hookah Bars","Restaurants",NA,NA,NA
"291","90ZdW5Hq-QHKFxLsO3T5FA","Island Grocery","Charlotte","NC",3.5,19,35.2039919,-80.7462014,"Food","Soul Food","Grocery","Caribbean","Restaurants",NA,NA,NA,NA
"292","KQqkkg5jaxIbdMIG4MJCIw","Sunrise Restaurant","Charlotte","NC",4,36,35.2024722,-80.7358131,"Breakfast & Brunch","Restaurants",NA,NA,NA,NA,NA,NA,NA
"293","AL259yRTSk5jQp6C4tjSiA","Don Pedro Mexican Restaurant","Charlotte","NC",4,14,35.187819,-80.757383,"Mexican","Restaurants",NA,NA,NA,NA,NA,NA,NA
"294","Lom8K4ZK5LIlRe2ZO90s9w","Chin Chin","Charlotte","NC",2.5,18,35.201622,-80.736859,"Chinese","Restaurants",NA,NA,NA,NA,NA,NA,NA
"295","CESMPxEWnj42f4nTXV3_yw","Ted's Restaurant","Charlotte","NC",3.5,20,35.152222,-80.745487,"American (Traditional)","Restaurants",NA,NA,NA,NA,NA,NA,NA
"296","F-e-sWfVd3eCYll3BP1QFA","Flying Saucer Draught Emporium","Charlotte","NC",4,191,35.3166944318598,-80.7405517995358,"Pubs","Bars","American (Traditional)","Nightlife","Restaurants",NA,NA,NA,NA
"297","-s-OW4Kr9YY3SBmRdpgFdQ","Liberty East Restaurant","Charlotte","NC",3.5,23,35.188469,-80.761267,"Breakfast & Brunch","Restaurants",NA,NA,NA,NA,NA,NA,NA
"298","p_HFt0I92MHDNPWvdtyEBA","Miguel's Restaurants","Charlotte","NC",4,163,35.242044,-80.939773,"Mexican","Restaurants",NA,NA,NA,NA,NA,NA,NA
"299","KpJeQaB0ca6k1-Wdduokqw","Showmars - Little Rock","Charlotte","NC",3,26,35.244848,-80.9379979,"Greek","Restaurants",NA,NA,NA,NA,NA,NA,NA
"300","0sbPpUIyTpcx90bLRsVx0w","Shuffletown Drive-In","Charlotte","NC",4,25,35.321649,-80.952888,"Breakfast & Brunch","American (Traditional)","Restaurants",NA,NA,NA,NA,NA,NA
"301","oDEaIbq68RkKu2z_kLeMdw","Chinatown","Charlotte","NC",2,11,35.319499,-80.952736,"Chinese","Restaurants",NA,NA,NA,NA,NA,NA,NA
"302","mh1le9QGMrZLohAjfheJJg","Bojangles' Famous Chicken 'n Biscuits","Charlotte","NC",2,11,35.3055903,-80.8549692,"Fast Food","Restaurants",NA,NA,NA,NA,NA,NA,NA
"303","7FZ9597M9LhHXGbBD-0VFg","Bubba's Barbecue","Charlotte","NC",3.5,60,35.3059579,-80.854211,"Barbeque","Restaurants",NA,NA,NA,NA,NA,NA,NA
"304","5WeccFfcgqpuHJiWegAclw","South 21 Family Restaurant","Charlotte","NC",3.5,12,35.286205,-80.905821,"Burgers","American (Traditional)","Restaurants",NA,NA,NA,NA,NA,NA
"305","2iiCazdKZjFYy46FR8iySA","Circle G Restaurant","Charlotte","NC",4.5,12,35.2724109,-80.8898552,"Southern","Restaurants",NA,NA,NA,NA,NA,NA,NA
"306","27cIh0prWEOO2anhGx2G8A","Stockyard Restaurant","Charlotte","NC",4.5,19,35.273464,-80.89172,"Breakfast & Brunch","American (Traditional)","Restaurants",NA,NA,NA,NA,NA,NA
"307","va9aHf7SEIfKLnvOmeavIw","Niyoshi II Japanese Express Restaurant","Charlotte","NC",3,15,35.3258777,-80.9464172,"Fast Food","Japanese","Restaurants",NA,NA,NA,NA,NA,NA
"308","687wG68J1XicP5YzMqKqFQ","Denny's","Charlotte","NC",3,22,35.3075772864739,-80.8511995545223,"Breakfast & Brunch","American (Traditional)","Diners","Restaurants",NA,NA,NA,NA,NA
"309","jr8D3lu1S0-eRpIVxkKnMA","Pizza Hut","Charlotte","NC",1.5,21,35.146999,-80.80925,"Italian","Pizza","Chicken Wings","Restaurants",NA,NA,NA,NA,NA
"310","Khv_fiHqB4JcMkzzz7yd7Q","Barrington's","Charlotte","NC",4,82,35.1469687,-80.8086157,"American (New)","Restaurants",NA,NA,NA,NA,NA,NA,NA
"311","r-pBY6vR_Iu5XhPRvPnquw","Hickory Tavern","Charlotte","NC",3.5,45,35.053472,-80.7708,"Nightlife","Bars","American (Traditional)","Sports Bars","Restaurants",NA,NA,NA,NA
"312","c2RzHxH4DQcH4A-a5FpidQ","Chuck E. Cheese's","Charlotte","NC",3,13,35.086145,-80.849974,"Pizza","Restaurants",NA,NA,NA,NA,NA,NA,NA
"313","CnQpjJ37QT75YA_OAzqgDw","Bojangles' Famous Chicken 'n Biscuits","Charlotte","NC",2,20,35.0890219,-80.8676405,"Fast Food","Restaurants",NA,NA,NA,NA,NA,NA,NA
"314","IbWfpebkP64zWgc9-ZVtZA","Fox & Hound of Charlotte","Charlotte","NC",3,36,35.0880289,-80.8633658,"Bars","Restaurants","American (Traditional)","Sports Bars","Nightlife",NA,NA,NA,NA
"315","i-tKO0n-1Tq6sTFUrhg9-Q","Wan Fu","Charlotte","NC",4,101,35.088596,-80.861458,"Chinese","Restaurants",NA,NA,NA,NA,NA,NA,NA
"316","5pa2LaT37MOBBmUr36J-eQ","Trio","Charlotte","NC",4,69,35.088556,-80.857383,"American (New)","Restaurants",NA,NA,NA,NA,NA,NA,NA
"317","pvaUE-Cmg6k37GQ-LluOLw","Waffle House","Charlotte","NC",4.5,14,35.0879653,-80.8584789,"Burgers","Fast Food","Restaurants",NA,NA,NA,NA,NA,NA
"318","3IQSDaqbnqACADJWlXpRkA","Chick-fil-A","Charlotte","NC",4,22,35.0988152,-80.78132351,"Fast Food","Restaurants",NA,NA,NA,NA,NA,NA,NA
"319","P0aKJw8rb0DKLaGottHEAw","Kabuto","Charlotte","NC",3,58,35.088069,-80.8512049,"Sushi Bars","Japanese","Restaurants",NA,NA,NA,NA,NA,NA
"320","4zr5_OOjwTdOEE7d_181RA","Bombay Grille","Charlotte","NC",3.5,87,35.0890454,-80.8670926,"Indian","Restaurants",NA,NA,NA,NA,NA,NA,NA
"321","qam5QKFE2a8MQBkxznrr3w","Great Wall Of China South","Charlotte","NC",3.5,98,35.08565,-80.847489,"Bars","Chinese","Seafood","Cocktail Bars","Nightlife","Restaurants",NA,NA,NA
"322","DReLu6HuFOm4p-jYZpgQkw","Thai House At Tower Place","Charlotte","NC",3.5,115,35.089035,-80.8670549,"Thai","Restaurants",NA,NA,NA,NA,NA,NA,NA
"323","i-cEO98lTS10WH30FyKvGA","Chili's","Charlotte","NC",2.5,22,35.0880278,-80.859157,"Nightlife","Bars","Tex-Mex","Restaurants",NA,NA,NA,NA,NA
"324","-9Zy-3vhvOtsY5u2taOfQQ","Park 51 Cafe","Charlotte","NC",3.5,27,35.0905079,-80.868095,"American (Traditional)","Restaurants",NA,NA,NA,NA,NA,NA,NA
"325","QoCjVVy4--QNyVRkzQTCEg","Lotus II Chinese Cuisine","Charlotte","NC",2.5,20,35.1170886006935,-80.8251102337279,"Chinese","Restaurants",NA,NA,NA,NA,NA,NA,NA
"326","xLZilmaLXY0r-dBFaiLxww","Nakato Japanese Steakhouse","Charlotte","NC",4,58,35.0880289,-80.8633658,"Japanese","Restaurants",NA,NA,NA,NA,NA,NA,NA
"327","f9WqdqHuZtwg41HDLSKaPA","Bangkok Ocha","Charlotte","NC",3.5,50,35.086393,-80.848856,"Thai","Restaurants",NA,NA,NA,NA,NA,NA,NA
"328","jm2VltGSjXCX6Da27Y-Ndw","Chi Thai","Charlotte","NC",3.5,23,35.096321,-80.78463,"Thai","Restaurants",NA,NA,NA,NA,NA,NA,NA
"329","NHIWIA3g7oLZ5gW1tpjf8w","Outback Steakhouse","Charlotte","NC",3,50,35.088117,-80.861651,"Steakhouses","Restaurants",NA,NA,NA,NA,NA,NA,NA
"330","2kz1P9SlJNAndRkXk4bCDA","Salsa's Mexican Restaurant","Charlotte","NC",3.5,21,35.0854349,-80.847571,"Mexican","Restaurants",NA,NA,NA,NA,NA,NA,NA
"331","bffCUYaQ4FejTfu_xFwjyQ","Showmars - Independence Center","Charlotte","NC",4,11,35.2277864,-80.8428303,"Greek","Restaurants",NA,NA,NA,NA,NA,NA,NA
"332","rg1-6A-8SKXGh_p-Abbyxg","Zapata's Cantina Mexican Restaurant","Charlotte","NC",3.5,89,35.309226,-80.749288,"Mexican","Restaurants",NA,NA,NA,NA,NA,NA,NA
"333","fBX9zO0TYlI05G8Mw5xSBw","Jack In the Box","Charlotte","NC",3.5,12,35.32318,-80.732899,"Fast Food","Restaurants",NA,NA,NA,NA,NA,NA,NA
"334","GNKcvMI0RyVQyEA4jNQXjQ","Ciro's Italian Restaurant","Charlotte","NC",3.5,58,35.309226,-80.749288,"Restaurants","Italian",NA,NA,NA,NA,NA,NA,NA
"335","SgjcjIxsAlVkcrtLaLxtTg","Chili's","Charlotte","NC",3.5,25,35.3087043,-80.7554721,"Nightlife","Bars","American (Traditional)","Tex-Mex","Restaurants",NA,NA,NA,NA
"336","JId-omv3reUpFcL0dhhegQ","Bojangles' Famous Chicken 'n Biscuits","Charlotte","NC",4,20,35.3045152,-80.7511524,"Fast Food","Restaurants",NA,NA,NA,NA,NA,NA,NA
"337","hlME5-P2CudNDCUSIX2cxQ","Showmars - University","Charlotte","NC",3.5,27,35.300589,-80.752675,"Greek","Restaurants",NA,NA,NA,NA,NA,NA,NA
"338","M8CC5_9vEvt1yOI2pnkvKA","Ninety's Ice Cream & Sandwiches","Charlotte","NC",4,24,35.310622,-80.749274,"Food","Ice Cream & Frozen Yogurt","Sandwiches","Restaurants",NA,NA,NA,NA,NA
"339","CN6AB-R4OLsKxFhQ1Kk68g","Hilton Charlotte University","Charlotte","NC",3.5,47,35.3087682,-80.7506546,"Hotels & Travel","Restaurants","Event Planning & Services","Hotels",NA,NA,NA,NA,NA
"340","qC21Nl_OUfTr_xf8ZjzOcg","Qdoba Mexican Grill","Charlotte","NC",4,23,35.303872,-80.749548,"Fast Food","Mexican","Restaurants",NA,NA,NA,NA,NA,NA
"341","zOY-W35waCcBWDmjX7_MFQ","Bruegger's Bagels","Charlotte","NC",4,20,35.312144,-80.745093,"Food","Sandwiches","Bagels","Breakfast & Brunch","Restaurants",NA,NA,NA,NA
"342","qZ1bDtcercwUw4w7trpVjQ","TGI Fridays","Charlotte","NC",2,55,35.307846,-80.75423,"Bars","American (Traditional)","Nightlife","Restaurants",NA,NA,NA,NA,NA
"343","98hOHm56D0Boz2LCg0-irg","Applebee's","Charlotte","NC",2,28,35.3110039,-80.75229,"Steakhouses","Bars","American (Traditional)","Nightlife","Restaurants",NA,NA,NA,NA
"344","P9aM91bY6XHOY9ZfaLUYqQ","Taco Bell","Charlotte","NC",3,20,35.31006,-80.75372,"Fast Food","Mexican","Tex-Mex","Restaurants",NA,NA,NA,NA,NA
"345","_91N3Q_MB5Nula56ZWXzSA","Shoney's Restaurants","Charlotte","NC",2,18,35.3052993,-80.7510223,"Burgers","Breakfast & Brunch","American (Traditional)","Restaurants",NA,NA,NA,NA,NA
"346","KxJ5DRcSo83N-GW4f_gMQQ","Smokey Bones Bar & Fire Grill","Charlotte","NC",2.5,28,35.3073652,-80.7497543,"American (Traditional)","Barbeque","Restaurants",NA,NA,NA,NA,NA,NA
"347","tuR6sBN9IwyLEg6KiuEXTQ","Jersey Mike's Subs","Charlotte","NC",3.5,14,35.312144,-80.745093,"Delis","Fast Food","Sandwiches","Restaurants",NA,NA,NA,NA,NA
"348","1PSnPPFVfp03iPfJRPWWQw","Nakato Japanese Steakhouse","Charlotte","NC",4,106,35.3058802,-80.754177,"Sushi Bars","Japanese","Restaurants",NA,NA,NA,NA,NA,NA
"349","6SWPWj74qF_pEVgDM3-IpA","Chick-fil-A","Charlotte","NC",4,24,35.31032,-80.752236,"Fast Food","Restaurants",NA,NA,NA,NA,NA,NA,NA
"350","rHl7fCXz78i89rEaflTPvw","Lotus Buffet","Charlotte","NC",3,31,35.3171014,-80.74022,"Chinese","Restaurants",NA,NA,NA,NA,NA,NA,NA
"351","3xdV-7di_YD3MVqs3Pa7-g","Picasso's Sports Cafe","Charlotte","NC",4,78,35.303872,-80.749548,"Bars","Burgers","Nightlife","Restaurants","Sports Bars","Pizza",NA,NA,NA
"352","hvhogN-3cMny0Nrqbsjpkg","Romano's Macaroni Grill","Charlotte","NC",2.5,59,35.314615,-80.762724,"Restaurants","Italian",NA,NA,NA,NA,NA,NA,NA
"353","7rsMIEq01gE12F7iRdzLEA","McAlister's Deli","Charlotte","NC",3.5,29,35.3404439,-80.7653197,"Delis","Sandwiches","Salad","Restaurants",NA,NA,NA,NA,NA
"354","-f5xy4PY0DV-9FyIM6-M6A","Texas Ranch Steak House","Charlotte","NC",3,12,35.280474,-80.792964,"Steakhouses","Restaurants",NA,NA,NA,NA,NA,NA,NA
"355","UvuUOiP0oIgJ2H_8J6h6Zg","Wing Zone","Charlotte","NC",2,18,35.3171014,-80.74022,"Sandwiches","Fast Food","Chicken Wings","Restaurants",NA,NA,NA,NA,NA
"356","i3HfmM-evIOLpJ2wuTZVKA","LongHorn Steakhouse","Charlotte","NC",3.5,40,35.3175247,-80.778361,"American (Traditional)","Steakhouses","Barbeque","Restaurants",NA,NA,NA,NA,NA
"357","ZXl9KGsv-VEoDKCC_08j4A","Hungry Howie's Pizza","Charlotte","NC",3,14,35.1408432,-80.7378572,"Pizza","Restaurants",NA,NA,NA,NA,NA,NA,NA
"358","UzbI1Da7X23bDLwPluj5Qg","Salsa's","Charlotte","NC",3.5,11,35.1389801,-80.7370526,"Mexican","Restaurants",NA,NA,NA,NA,NA,NA,NA
"359","O6fEzyH0fRP7r8IbSnCgoA","Best Wok","Charlotte","NC",4,31,35.140593,-80.7376132,"Chinese","Restaurants",NA,NA,NA,NA,NA,NA,NA
"360","-2NCvK5807Nxs9GUb2Eo1g","Juliana Pizza Family Restaurant","Charlotte","NC",3.5,24,35.137534,-80.739321,"Pizza","Restaurants",NA,NA,NA,NA,NA,NA,NA
"361","PZ-QCAXNMBV3f54UiP5qIQ","The Randazzos' Grid Iron","Charlotte","NC",2.5,61,35.101027,-80.990651,"Seafood","Restaurants","Italian",NA,NA,NA,NA,NA,NA
"362","51Tvv-QOiFeEcELzDuO1fQ","China Town","Charlotte","NC",3.5,14,35.094605,-81.005171,"Chinese","Restaurants",NA,NA,NA,NA,NA,NA,NA
"363","AzW6M1E6KcrTDpQ0DkRt9A","Chick-fil-A","Charlotte","NC",4,29,35.2265794,-80.8432784,"Fast Food","Restaurants",NA,NA,NA,NA,NA,NA,NA
"364","iTjwgc3rHS5k3GptqIp2Uw","Johnny Burrito","Charlotte","NC",4,66,35.2254586,-80.8452366,"Mexican","Tex-Mex","Restaurants",NA,NA,NA,NA,NA,NA
"365","rPQsep_POg0YATvt-6MEfg","Jumpin' Java","Fort Mill","SC",3.5,12,35.066659,-80.959564,"Breakfast & Brunch","Sandwiches","Restaurants",NA,NA,NA,NA,NA,NA
"366","jqSH8cUTY0hgJlDi8S01kA","Village Pizza","Fort Mill","SC",4,41,35.0589796,-80.9895682,"Italian","Pizza","Restaurants",NA,NA,NA,NA,NA,NA
"367","5odPoosll36dti3xbSwuJA","McHale's","Fort Mill","SC",3.5,14,35.0603864,-80.996515,"Bars","American (Traditional)","Nightlife","Restaurants",NA,NA,NA,NA,NA
"368","hGMY-HlQTFUCSmHPDobBUg","El Cancun Mexican Restaurant","Fort Mill","SC",3,12,35.093402,-80.934661,"Mexican","Restaurants",NA,NA,NA,NA,NA,NA,NA
"369","LwSNsn2k6v_Nb2dbhP3qsQ","De Marco's Italian Grill","Fort Mill","SC",3.5,29,35.0603957,-80.9932098,"Restaurants","Pizza","Italian",NA,NA,NA,NA,NA,NA
"370","1UQpjv4QuD5l_ZT7O4p6Rw","El Maguey","Fort Mill","SC",2,12,35.0593126,-80.9894232,"Mexican","Restaurants",NA,NA,NA,NA,NA,NA,NA
"371","Zc2IwSzGY63zkyhfNrr7HA","T-Bones On the Lake","Lake Wylie","SC",2.5,104,35.110027,-81.04492,"Dive Bars","Bars","Steakhouses","Nightlife","Restaurants",NA,NA,NA,NA
"372","She6nAFoCwhUcfdeYWIgzA","Rey Azteca","Clover","SC",4,23,35.1097984,-81.0425005,"Mexican","Restaurants",NA,NA,NA,NA,NA,NA,NA
"373","7G3Po8KXn1KF02qOg-X_mA","Outback Steakhouse","Rock Hill","SC",3,41,35.0152371,-81.0257227,"Steakhouses","Restaurants",NA,NA,NA,NA,NA,NA,NA
"374","JwUE5GmEO-sH1FuwJgKBlQ","Pine Cone Restaurant","De Forest","WI",4,50,43.18405,-89.3229659,"American (Traditional)","Restaurants",NA,NA,NA,NA,NA,NA,NA
"375","uGykseHzyS5xAMWoN6YUqA","Deforest Family Restaurant","De Forest","WI",4,32,43.2521822,-89.353353,"American (Traditional)","Restaurants",NA,NA,NA,NA,NA,NA,NA
"376","LRKJF43s9-3jG9Lgx4zODg","Culver's","DeForest","WI",4.5,16,43.251045,-89.374983,"Food","Ice Cream & Frozen Yogurt","Fast Food","Restaurants",NA,NA,NA,NA,NA
"377","rdAdANPNOcvUtoFgcaY9KA","Green Lantern Restaurant","Mc Farland","WI",3.5,50,43.0258026,-89.3063407,"American (Traditional)","Restaurants",NA,NA,NA,NA,NA,NA,NA
"378","_wZTYYL7cutanzAnJUTGMA","Beach House Restaurant & Lounge","Mc Farland","WI",3.5,38,43.0177797,-89.3038349,"Bars","American (Traditional)","Nightlife","Lounges","Restaurants",NA,NA,NA,NA
"379","zOc8lbjViUZajbY7M0aUCQ","Spartan Pizza","Mc Farland","WI",4,13,43.0141412,-89.2886604,"Burgers","Bars","Pizza","Nightlife","Restaurants",NA,NA,NA,NA
"380","SKLw05kEIlZcpTD5pqma8Q","Imperial Garden","Middleton","WI",3,67,43.090642,-89.485169,"Chinese","Restaurants",NA,NA,NA,NA,NA,NA,NA
"381","77ESrCo7hQ96VpCWWdvoxg","Mi Cocina","Middleton","WI",3,22,43.091176,-89.487249,"Mexican","Restaurants",NA,NA,NA,NA,NA,NA,NA
"382","MKsb2VpLB-0UBODcInDsSw","China Wok Buffet","Middleton","WI",2.5,19,43.0965066,-89.501014,"Chinese","Restaurants",NA,NA,NA,NA,NA,NA,NA
"383","ShEYKerTwb2LSORE5o_s7A","Prairie Cafe & Bakery","Middleton","WI",3.5,42,43.1072304,-89.4969553,"Bakeries","Food","Breakfast & Brunch","Coffee & Tea","Restaurants",NA,NA,NA,NA
"384","HaBkx5PwvbBpQ2iNCgHnVQ","Paul's Neighborhood Bar","Middleton","WI",4,16,43.101459,-89.511049,"Bars","American (New)","Nightlife","Restaurants",NA,NA,NA,NA,NA
"385","KW6HejC-67KSL9J8Cz1dSw","Chin's Asia Fresh","Middleton","WI",3,45,43.075345267736,-89.528480180844,"Chinese","Restaurants",NA,NA,NA,NA,NA,NA,NA
"386","wl-7A4jC0f27MOEmW-XTbQ","Grand China Restaurant","Middleton","WI",3.5,13,43.1035561,-89.4864809,"Chinese","Restaurants",NA,NA,NA,NA,NA,NA,NA
"387","c5awCF5eu0ZkxUf_i94uPA","Bristled Boar Saloon & Grill","Middleton","WI",3.5,22,43.1033362,-89.4925824,"Bars","American (Traditional)","Nightlife","Restaurants",NA,NA,NA,NA,NA
"388","xbJ9tdGbcVJIUkNgHSCwZQ","Hody Bar & Grill","Middleton","WI",2.5,16,43.0961397,-89.5131754,"Arts & Entertainment","American (Traditional)","Music Venues","Bars","Nightlife","Restaurants",NA,NA,NA
"389","koRLvzIl-4fCybOIdk56jA","Louisianne's","Middleton","WI",4,77,43.095616,-89.511021,"Cajun/Creole","Seafood","Restaurants",NA,NA,NA,NA,NA,NA
"390","X47o6R2rWiqGqvBtC7VS3Q","Three Sisters Old Town Inn","Middleton","WI",3.5,32,43.0999215,-89.5111795,"Breakfast & Brunch","Restaurants",NA,NA,NA,NA,NA,NA,NA
"391","lN-5-YTsaJr_IByyA476iw","Middleton Sport Bowl","Middleton","WI",3.5,15,43.0966736,-89.4997544,"Active Life","Bowling","Restaurants",NA,NA,NA,NA,NA,NA
"392","JRPrCy55SB366pvMEGy-Xg","Fitzgerald's","Middleton","WI",3,21,43.108671,-89.510812,"Steakhouses","Restaurants",NA,NA,NA,NA,NA,NA,NA
"393","G1qUGBNYNS220jKlPAlFsA","The Village Green","Middleton","WI",4,61,43.095724,-89.5120419,"Pubs","Bars","American (Traditional)","Nightlife","Restaurants",NA,NA,NA,NA
"394","6oDZ78JiSKjXVLcurCpnhw","Nitty Gritty Middleton","Middleton","WI",3,28,43.0844617,-89.5014542,"Bars","American (Traditional)","Nightlife","Restaurants",NA,NA,NA,NA,NA
"395","kiAsweI4sOjDzGyz3Y_HsQ","Culver's","Middleton","WI",4.5,19,43.1062742,-89.5113122,"Food","Ice Cream & Frozen Yogurt","Restaurants","Burgers",NA,NA,NA,NA,NA
"396","q8fD82us6uuGufvI44NoAg","Vin Santo","Middleton","WI",4,89,43.0956058,-89.5108863,"Restaurants","Italian",NA,NA,NA,NA,NA,NA,NA
"397","Nj0vQjUYjaa7qbvZlEr2jQ","Club Tavern & Grille","Middleton","WI",3,38,43.0968804,-89.4946898,"Bars","American (New)","Nightlife","Restaurants",NA,NA,NA,NA,NA
"398","B0Vuwn6Hugc-0U5n31YBfg","C's Restaurant Bakery and Coffee Shop","Middleton","WI",4,28,43.102896,-89.48674,"Bakeries","Food","American (Traditional)","Restaurants","Donuts",NA,NA,NA,NA
"399","3zD6rxB92Mr0jb-LoYFFWw","Burger King","Sun Prairie","WI",1.5,21,43.1878972,-89.2271655,"Burgers","Restaurants",NA,NA,NA,NA,NA,NA,NA
"400","b3HiA0pIJ-qIUfXwqIvAZQ","Anna's Pizzeria","Sun Prairie","WI",4.5,16,43.1778077,-89.2403448,"Pizza","Restaurants",NA,NA,NA,NA,NA,NA,NA
"401","04h3nxtkDfaKsJhrKRHZ-Q","Taco Bell","Sun Prairie","WI",2,12,43.174555,-89.25008,"Fast Food","Mexican","Tex-Mex","Restaurants",NA,NA,NA,NA,NA
"402","2pmMehsVKnwhgWPSOxrkjA","Panda Garden","Sun Prairie","WI",3.5,16,43.1886488,-89.228567,"Chinese","Restaurants",NA,NA,NA,NA,NA,NA,NA
"403","NDAxF0_RCZBQedVO_d5WnA","Chang Jiang","Sun Prairie","WI",3.5,16,43.1816362,-89.2294373,"Chinese","Restaurants",NA,NA,NA,NA,NA,NA,NA
"404","eptljN50_4BpIwc2Op_A_A","Deli Roma","Sun Prairie","WI",4,22,43.1783069,-89.241085,"Delis","Restaurants",NA,NA,NA,NA,NA,NA,NA
"405","Xp7OA8gz7zDgB3I54jyb4g","SIR Hobo's","Sun Prairie","WI",3,26,43.182445,-89.225628,"Restaurants",NA,NA,NA,NA,NA,NA,NA,NA
"406","yV-eB-pQVeWE7W-WPC8BUg","Prairie Diner","Sun Prairie","WI",4,28,43.1881219,-89.230805,"Diners","Restaurants",NA,NA,NA,NA,NA,NA,NA
"407","MlWXHxdbIODf9GUcvUTfGQ","Country Cafe","Sun Prairie","WI",3.5,17,43.1870224,-89.2309754,"Breakfast & Brunch","American (Traditional)","Diners","Restaurants",NA,NA,NA,NA,NA
"408","O_Pu4mKGOqQVlmH07Zbnhg","The Rodeside Grill","Windsor","WI",3.5,37,43.193601,-89.339602,"American (Traditional)","Restaurants",NA,NA,NA,NA,NA,NA,NA
"409","HGzdDbukK8RJEc623kLz5Q","A&W Restaurant","Windsor","WI",3.5,14,43.1955564,-89.3441762,"Burgers","Fast Food","Restaurants",NA,NA,NA,NA,NA,NA
"410","oX6KamASYXnMIe5kpVhezw","Flaming Wok","Madison","WI",3.5,42,43.1206623,-89.3089837,"Chinese","Restaurants",NA,NA,NA,NA,NA,NA,NA
"411","S4TWo9X6b3gU6uucj4JN3g","Laredo's","Madison","WI",3.5,31,43.1204129,-89.3146147,"Mexican","Restaurants",NA,NA,NA,NA,NA,NA,NA
"412","xZwaUcrFMSY1O9dK2dAUpA","China Wok","Madison","WI",3,30,43.0945835,-89.3641631,"Chinese","Restaurants",NA,NA,NA,NA,NA,NA,NA
"413","qQvpS262VPEHKZvM6j5uhQ","Callahan's Sports Pub","Madison","WI",2.5,19,43.124427,-89.324419,"Bars","Restaurants","American (Traditional)","Sports Bars","Nightlife",NA,NA,NA,NA
"414","XWDk-pLSbVE2Vvv9Z-zusQ","Burger King","Madison","WI",1.5,21,43.101439,-89.347232,"Fast Food","Restaurants",NA,NA,NA,NA,NA,NA,NA
"415","1hBOR97oX5Xph3J8Tdob7w","Cheeseburger in Paradise","Middleton","WI",2.5,45,43.0907640771797,-89.5292315086927,"Burgers","American (Traditional)","Restaurants",NA,NA,NA,NA,NA,NA
"416","ybkWtM1ZnT2ewuquj3A9KQ","Benvenuto's Italian Grill","Madison","WI",3,36,43.1288990362073,-89.3600500520905,"Restaurants","Italian",NA,NA,NA,NA,NA,NA,NA
"417","zAsxPh3h9xMQnSDGl41kSg","Wilson's Bar","Madison","WI",3.5,23,43.093214,-89.350403,"Bars","Burgers","Sandwiches","Nightlife","Sports Bars","Restaurants",NA,NA,NA
"418","lNE3gOMb724YPlZAA8WlXQ","Denny's","Madison","WI",3,13,43.123154988103,-89.3143174052238,"Breakfast & Brunch","American (Traditional)","Diners","Restaurants",NA,NA,NA,NA,NA
"419","cpGv6ES2hzPCtCUQgipwXw","New Orleans Take-Out","Madison","WI",4,58,43.0984345318305,-89.3644666671753,"Sandwiches","Cajun/Creole","Seafood","Restaurants",NA,NA,NA,NA,NA
"420","wPidHd5FxspPRgVqdEQ-Xw","Pedro's Mexican Restaurante","Madison","WI",2.5,73,43.1146165,-89.3254853,"Mexican","Restaurants",NA,NA,NA,NA,NA,NA,NA
"421","9hf_gSaDn3cdLsE6vTsUfw","Happy Wok","Madison","WI",4,11,43.1470709,-89.287972,"Chinese","Restaurants",NA,NA,NA,NA,NA,NA,NA
"422","yYIEKwgQUHJpySOcVdCAkg","Perkins Restaurant & Bakery","Madison","WI",3,20,43.135895397461,-89.2994485795498,"American (Traditional)","Cafes","Restaurants",NA,NA,NA,NA,NA,NA
"423","QF14BFUVHRODxGNVflgm3A","Cracker Barrel Old Country Store","Madison","WI",3,25,43.1295964,-89.2934283,"Breakfast & Brunch","American (Traditional)","Southern","Restaurants",NA,NA,NA,NA,NA
"424","oudTF4EN_C8thENGiTQf-w","Chili's","Madison","WI",3,22,43.1266792,-89.3087635,"Bars","Restaurants","American (Traditional)","Nightlife","Tex-Mex",NA,NA,NA,NA
"425","JdCFcgw4yk4M1ZRhAhBIag","Applebee's","Madison","WI",2.5,31,43.130005,-89.303977,"Bars","American (Traditional)","Nightlife","Steakhouses","Sports Bars","Restaurants",NA,NA,NA
"426","rgyvl8tNVAony634_9vFdQ","Taco Bell","Madison","WI",2,11,43.10379,-89.342924,"Fast Food","Mexican","Tex-Mex","Restaurants",NA,NA,NA,NA,NA
"427","v5a-Mj4eO1E--HmgwEWo7A","Red Lobster","Madison","WI",3,37,43.128034,-89.307157,"Seafood","American (Traditional)","Restaurants",NA,NA,NA,NA,NA,NA
"428","HTplzElel_F_U_qhWuDKdg","Dexter's Pub","Madison","WI",4,91,43.1034474,-89.3501215,"Pubs","Bars","American (New)","Nightlife","Restaurants",NA,NA,NA,NA
"429","0oQFFOdPZycIBmGkoBrlbg","Noodles & Company","Madison","WI",3.5,34,43.1254079486806,-89.3096987727687,"Noodles","Restaurants",NA,NA,NA,NA,NA,NA,NA
"430","QdSGdvZATzejDkSs435Rdw","Eagle Crest Bar","Madison","WI",3.5,15,43.1070277512392,-89.2873446107625,"Dive Bars","Burgers","Bars","Nightlife","Restaurants",NA,NA,NA,NA
"431","1YEuqVtVMHdpavzoGcUUug","International House of Pancakes","Madison","WI",2,18,43.1301419411028,-89.3064034108782,"Breakfast & Brunch","American (Traditional)","Restaurants",NA,NA,NA,NA,NA,NA
"432","uzJ2Vefb951El2oneQI8NQ","Wong's Garden","Madison","WI",3.5,17,43.0925288,-89.3538449,"Chinese","Restaurants",NA,NA,NA,NA,NA,NA,NA
"433","JPFzpR5PvZWqHXQMIZFk2w","Cool Beans Coffee Cafe","Madison","WI",4.5,54,43.1229341,-89.3090068,"Food","Coffee & Tea","Cafes","Restaurants",NA,NA,NA,NA,NA
"434","fjaQ3Ixkofh8xGhklUtDnA","Monty's Blue Plate Diner","Madison","WI",4,398,43.09242,-89.3518969,"American (Traditional)","Diners","Restaurants",NA,NA,NA,NA,NA,NA
"435","J2AiPQnKWBxBwc4MMkbH8w","Villa Tap","Madison","WI",4,23,43.1233893,-89.3553901,"Dive Bars","Bars","American (Traditional)","Nightlife","Restaurants",NA,NA,NA,NA
"436","YlznKuAxnd7j3QfXFzoIog","Players Sports Bar","Madison","WI",4.5,19,43.0924809,-89.3545584,"Bars","Burgers","Sandwiches","Nightlife","Sports Bars","Restaurants",NA,NA,NA
"437","Ryq600aoE3h8_qRQGIed9A","People's Bakery","Madison","WI",4.5,63,43.1029802,-89.3456932,"Bakeries","Lebanese","Food","Mediterranean","Middle Eastern","Restaurants",NA,NA,NA
"438","jqOPL979k-t_Vc049CnAjg","Rosati's Authentic Chicago Pizza","Madison","WI",3.5,13,43.1055563605608,-89.2966957014282,"Pizza","Restaurants",NA,NA,NA,NA,NA,NA,NA
"439","68JsiWNLKs8NDCrBCxIWMA","Esquire Club","Madison","WI",3,38,43.111265,-89.363442,"Steakhouses","Restaurants",NA,NA,NA,NA,NA,NA,NA
"440","PhdMPqSdLZi6IV8SdnpUAQ","Olive Garden Italian Restaurant","Madison","WI",3.5,28,43.1263218,-89.3093442,"Bars","Salad","Wine Bars","Nightlife","Italian","Restaurants",NA,NA,NA
"441","eC4iEcRR3p5NLq9Zf80ZGg","Imperial Garden Chinese Restaurant","Madison","WI",3.5,32,43.1264618,-89.3115905,"Chinese","Restaurants",NA,NA,NA,NA,NA,NA,NA
"442","-4PHmmCt_RmAfaE3sDKW_g","Mr Roberts","Madison","WI",3.5,16,43.092992,-89.351504,"Bars","Dive Bars","Burgers","Nightlife","American (New)","Restaurants",NA,NA,NA
"443","JJFoeKZXgi2_LeECDMkkoQ","Tip Top Tavern","Madison","WI",4,62,43.107164,-89.351047,"Pubs","Bars","American (New)","Nightlife","Restaurants",NA,NA,NA,NA
"444","KHOHjA8HOcTlFBCtMQFv8A","Harmony Bar & Grill","Madison","WI",4,41,43.093003,-89.349182,"Dive Bars","Bars","American (Traditional)","Nightlife","Restaurants",NA,NA,NA,NA
"445","ykxf0XiJt-d76dBwfO_yew","TGI Fridays","Madison","WI",3,22,43.131344,-89.2985024,"Bars","American (Traditional)","Nightlife","Restaurants",NA,NA,NA,NA,NA
"446","HLWtNcf3l-wKb6v9duteMQ","Smoky Jon's No 1 B-B-Q","Madison","WI",4,176,43.123698,-89.355581,"Barbeque","Restaurants",NA,NA,NA,NA,NA,NA,NA
"447","XIZ259hZ6Yww3C0o97MgUQ","Fazoli's","Madison","WI",2.5,13,43.127149,-89.30111,"Restaurants","Italian",NA,NA,NA,NA,NA,NA,NA
"448","j515klfbCAEF3KPiKvHz9g","Pat O'Malley's Jet Room","Madison","WI",4.5,66,43.1400680997769,-89.3262535776966,"Breakfast & Brunch","American (Traditional)","Diners","Restaurants",NA,NA,NA,NA,NA
"449","S2x-rEziU3ONR9zO_vpPxA","Panera Bread","Madison","WI",2.5,27,43.131264,-89.301283,"Soup","Sandwiches","Salad","Restaurants",NA,NA,NA,NA,NA
"450","MONajnUQ5-IRtv8PSPn_yA","Cottage Cafe","Madison","WI",4.5,40,43.0852546,-89.306513,"Breakfast & Brunch","Cafes","Restaurants",NA,NA,NA,NA,NA,NA
"451","Jb5SB2OXbRW0e7ErGlMK-Q","Michael's Frozen Custard","Madison","WI",3.5,41,43.0851381,-89.3252648,"Food","Ice Cream & Frozen Yogurt","Restaurants","Burgers",NA,NA,NA,NA,NA
"452","Py2Jmwm7QXZRCVJ5hnPXgw","La Rosita Latina Grocery Store","Monona","WI",4.5,16,43.0546552,-89.3255237,"Food","Grocery","Latin American","Mexican","Restaurants",NA,NA,NA,NA
"453","spiYqne1kXzYQxDTZfKt2g","Fat Jacks Barbecue","Monona","WI",3,37,43.050444,-89.325618,"Barbeque","Restaurants",NA,NA,NA,NA,NA,NA,NA
"454","cRqZ_w9ImfYYIXTHpJMv0Q","Silver Eagle Bar & Grill","Monona","WI",3,22,43.056329,-89.326148,"Bars","American (Traditional)","Nightlife","Restaurants",NA,NA,NA,NA,NA
"455","kOXJrbuB1a1Na6sf_WQnDg","Tully's II Food & Spirits","Monona","WI",2.5,11,43.0486523,-89.3253781,"Bars","American (Traditional)","Nightlife","Restaurants",NA,NA,NA,NA,NA
"456","ki33_SvM4kPjgA44Re8-zQ","Fraboni's Italian Specialties & Delicatessen","Monona","WI",4.5,18,43.056621,-89.326717,"Delis","Restaurants","Italian",NA,NA,NA,NA,NA,NA
"457","LWmlH8MwUnwMWN5Ma8utnQ","Ken's Meat's & Deli","Monona","WI",4,27,43.0573597,-89.3261551,"Food","Specialty Food","Delis","Meat Shops","Restaurants",NA,NA,NA,NA
"458","QfCHvy6v39xPH7CvCASlFg","Buck's Pizza","Madison","WI",4,19,43.0836891,-89.3225822,"Pizza","Restaurants",NA,NA,NA,NA,NA,NA,NA
"459","qodyGnpmj1zEfi7nJ534BA","David's Jamaican Cuisine","Monona","WI",4,53,43.0569909,-89.32527,"Caribbean","Restaurants",NA,NA,NA,NA,NA,NA,NA
"460","unXHmjewHGeWQwJr74Sy9g","China Inn","Madison","WI",2.5,17,43.0843511,-89.2997981,"Chinese","Restaurants",NA,NA,NA,NA,NA,NA,NA
"461","JD1uVun5FEF_Ih2PnHCbuA","Dairyland Family Restaurant","Madison","WI",2.5,17,43.084321,-89.31379,"American (New)","Restaurants",NA,NA,NA,NA,NA,NA,NA
"462","4pZeC9W0EIiBTOJMnwG2vw","Red Robin Gourmet Burgers","Monona","WI",2.5,51,43.046583,-89.3240256,"Burgers","American (Traditional)","Restaurants",NA,NA,NA,NA,NA,NA
"463","2aai1pIfThxDTTD_WwXHeA","Taste of China","Monona","WI",2.5,13,43.0602545,-89.3267209,"Chinese","Restaurants",NA,NA,NA,NA,NA,NA,NA
"464","jGU7WGOM2qUHofLKZAFAIg","Noodles & Company","Monona","WI",2.5,14,43.047024,-89.3238721,"Noodles","Restaurants",NA,NA,NA,NA,NA,NA,NA
"465","FiP9q_YD5vgxu_Sflo5oZw","Culver's","Madison","WI",3.5,12,43.0837436,-89.3078087,"Food","Ice Cream & Frozen Yogurt","Fast Food","Restaurants",NA,NA,NA,NA,NA
"466","FIR1SRvSAMNTO3VvNaJn2g","Toby's Supper Club","Madison","WI",3.5,74,43.0440001,-89.3027747,"American (Traditional)","Restaurants",NA,NA,NA,NA,NA,NA,NA
"467","yrBo3c3OTKVO4H1ttBxadw","Pooley's","Madison","WI",3,33,43.1416016,-89.2849001,"Bars","American (Traditional)","Venues & Event Spaces","Nightlife","Event Planning & Services","Sports Bars","Restaurants",NA,NA
"468","R825-NTAI2wG2C4mN-dtNA","Uno Pizzeria & Grill","Madison","WI",3,47,43.135442,-89.290761,"American (Traditional)","Pizza","Gluten-Free","Restaurants",NA,NA,NA,NA,NA
"469","wN5WijlhJjW_3keXENR1cw","Sushi Box","Madison","WI",4,53,43.071852,-89.42842,"Asian Fusion","Sushi Bars","Japanese","Restaurants",NA,NA,NA,NA,NA
"470","r5S_wYdu1vKRW1k-7_yOIA","Milio's Sandwiches","Madison","WI",4,18,43.0677216,-89.4236293,"Sandwiches","Restaurants",NA,NA,NA,NA,NA,NA,NA
"471","27q7XsLrKPNwr8i5RcCOvQ","Boomerang's Bar & Grill","Urbana","IL",4,13,40.1050134,-88.1925483,"Bars","American (Traditional)","Nightlife","Restaurants",NA,NA,NA,NA,NA
"472","0kRBRm5xOWclzemsLl9iQA","Hickory River Smokehouse","Urbana","IL",3.5,75,40.128807,-88.197784,"American (Traditional)","Barbeque","Restaurants",NA,NA,NA,NA,NA,NA
"473","Gf9HbiraKNZpxbxwScHBVw","The Apple Dumplin'","Urbana","IL",3.5,28,40.1336703544176,-88.1625332782138,"American (Traditional)","Restaurants",NA,NA,NA,NA,NA,NA,NA
"474","vubRS4bmJ_8yXpn-67wNZA","First Wok","Urbana","IL",4,25,40.0962948,-88.1920978,"Chinese","Restaurants",NA,NA,NA,NA,NA,NA,NA
"475","1ZMcQNF-hHL0nJSnh5_a4w","El Toro","Urbana","IL",3.5,16,40.123643,-88.200627,"Mexican","Restaurants",NA,NA,NA,NA,NA,NA,NA
"476","u-y1z3usKenHtOGrH5Vveg","Cracker Barrel Old Country Store","Urbana","IL",3.5,23,40.133434,-88.1994841,"Food","Desserts","Breakfast & Brunch","American (Traditional)","Restaurants",NA,NA,NA,NA
"477","yTlW8Xh1wPpvHBl3dGz9mA","Monical's Pizza","Urbana","IL",3,25,40.0833818,-88.1905185,"Pizza","Restaurants",NA,NA,NA,NA,NA,NA,NA
"478","6M1F5AECDtWff1Tu3uLEWA","Empire Chinese Restaurant","Champaign","IL",3.5,39,40.110554,-88.232373,"Chinese","Restaurants",NA,NA,NA,NA,NA,NA,NA
"479","Uw1DZhEtTmLzMcXmdpR8Pw","Silver Mine Subs","Champaign","IL",3.5,19,40.108174,-88.229693,"Sandwiches","Restaurants",NA,NA,NA,NA,NA,NA,NA
"480","rE8048_DAh3Z8Tep466wrA","Mandarin Wok","Champaign","IL",3.5,50,40.1100319,-88.2330779,"Chinese","Restaurants",NA,NA,NA,NA,NA,NA,NA
"481","RwhUzMEG2tVnZQY9dEuXzw","Kam's","Champaign","IL",2,46,40.1079898,-88.2295058,"Bars","Pubs","Comfort Food","Nightlife","Sports Bars","Restaurants",NA,NA,NA
"482","cT9uP_Lr5bz6jhIqZPlLcw","El Charro","Champaign","IL",4,46,40.1100704,-88.2395746,"Mexican","Restaurants",NA,NA,NA,NA,NA,NA,NA
"483","UrxAu3jjRM_u6iQXDPzkSQ","Zorba's Restaurant","Champaign","IL",4,96,40.110085,-88.229304,"Greek","Restaurants",NA,NA,NA,NA,NA,NA,NA
"484","vY3jiyABOyFOaGBujou8Vg","Luna","Champaign","IL",3,64,40.116715,-88.240606,"Tapas Bars","Restaurants",NA,NA,NA,NA,NA,NA,NA
"485","1tK0k-vRgGFC3oSZNUJ58Q","Bombay Indian Grill","Champaign","IL",3.5,76,40.110474,-88.233544,"Indian","Restaurants",NA,NA,NA,NA,NA,NA,NA
"486","iCOvcfVRfi-f05aeqBLpKg","Geovanti's","Champaign","IL",3.5,33,40.1100246,-88.2332899,"Dive Bars","Bars","Restaurants","Nightlife","Italian",NA,NA,NA,NA
"487","j9N_fG1PVCSY-3HY1TRQ5Q","Jimmy John's","Champaign","IL",3.5,12,40.1097893,-88.2408101,"Sandwiches","Restaurants",NA,NA,NA,NA,NA,NA,NA
"488","u06X5C_pIAVuOXOznIcPYw","Home of Gourmet Chinese & Thai Restaurant","Champaign","IL",3.5,36,40.108116,-88.230005,"Chinese","Restaurants",NA,NA,NA,NA,NA,NA,NA
"489","3lHBRYjfaMTZeWuQs9vvQw","Basil Thai Cafe","Champaign","IL",2.5,13,40.110554,-88.232373,"Thai","Restaurants",NA,NA,NA,NA,NA,NA,NA
"490","K5PfWwW61Ajommy9xvXdAw","Kamakura Japanese Restaurant","Champaign","IL",3,56,40.107869,-88.2435628,"Japanese","Restaurants",NA,NA,NA,NA,NA,NA,NA
"491","gwrFXlSudWuA-zxZeE5svA","Seaboat","Champaign","IL",3.5,48,40.0977581,-88.2487949,"Soul Food","Southern","Restaurants",NA,NA,NA,NA,NA,NA
"492","H0D2HYqLd9MRCq68rtbTyQ","Olive Garden Italian Restaurant","Champaign","IL",3,47,40.135851981612,-88.241127950452,"Bars","Salad","Wine Bars","Nightlife","Italian","Restaurants",NA,NA,NA
"493","SoyigEmlt4JYwnOqR_cqUw","The Ribeye","Champaign","IL",3.5,53,40.096106,-88.2454553,"Steakhouses","Restaurants",NA,NA,NA,NA,NA,NA,NA
"494","niK-GkBZ_RIFscfy-nH1rg","Old Time Meat & Deli Shoppe","Champaign","IL",5,36,40.091899,-88.2452807,"Food","Specialty Food","Delis","Meat Shops","Restaurants",NA,NA,NA,NA
"495","vBg5V39Vf4eTx1JVgl_5Pg","Merry-Ann's Diner","Champaign","IL",3,56,40.0984525131702,-88.2442462116229,"Breakfast & Brunch","Diners","Restaurants",NA,NA,NA,NA,NA,NA
"496","UV04TEpMGWoQs36FkBwOgQ","TGI Friday's","Champaign","IL",3,15,40.097136,-88.245695,"American (Traditional)","Restaurants",NA,NA,NA,NA,NA,NA,NA
"497","G7td0ad3wqtEODTJpNjEZQ","Carmon's Restaurant","Champaign","IL",4,43,40.119807,-88.2438559,"Creperies","French","Restaurants",NA,NA,NA,NA,NA,NA
"498","_dOcOVjrFcIKbMWX1VTdBA","Fiesta Cafe","Champaign","IL",4,44,40.1147989,-88.2384807,"Mexican","Restaurants",NA,NA,NA,NA,NA,NA,NA
"499","2UAbUSTMsR9G26A8AYO3dA","Sam's Cafe","Champaign","IL",4,80,40.1169853,-88.2427068,"Breakfast & Brunch","Diners","Restaurants",NA,NA,NA,NA,NA,NA
"500","MVH3JOKpQvMTP4jxwBUhkA","Murphy's Pub","Champaign","IL",3.5,102,40.1103799066466,-88.2301879674196,"Pubs","Bars","American (New)","Nightlife","Restaurants",NA,NA,NA,NA
"501","6HKjKhgDLBpuZFNBOCzVQw","Le Peep Restaurant","Champaign","IL",3.5,91,40.086902,-88.247837,"American (New)","Restaurants",NA,NA,NA,NA,NA,NA,NA
"502","ygZ1n-RjzZibC80NLgHauw","Manzellas Italian Restaurant","Champaign","IL",3.5,25,40.1158806,-88.23873,"Italian","Pizza","Restaurants",NA,NA,NA,NA,NA,NA
"503","9SFWEreW7wAXB3zYu28r_Q","Hardee's","Champaign","IL",2.5,11,40.0956999,-88.2454984,"Burgers","Restaurants",NA,NA,NA,NA,NA,NA,NA
"504","U8fJ4fEhoFGqxYLK_VNoEQ","A-Ri-Rang","Champaign","IL",3.5,44,40.1111735242579,-88.2290436699986,"Korean","Restaurants",NA,NA,NA,NA,NA,NA,NA
"505","WgmAx4SWy-71daxakDNd1g","Chevys Fresh Mex","Champaign","IL",3,16,40.137405,-88.245935,"Bars","Mexican","Nightlife","Restaurants",NA,NA,NA,NA,NA
"506","05FJCAvUFOAk8B_nIOqt7A","Legends","Champaign","IL",3.5,65,40.1105579,-88.2311675,"Bars","Restaurants","Nightlife","Sandwiches",NA,NA,NA,NA,NA
"507","JhEA8qHfNmIh8c6OHXnaYA","Hooters","Champaign","IL",2.5,25,40.1271729,-88.2468548,"Bars","American (Traditional)","Sports Bars","Nightlife","Chicken Wings","Restaurants",NA,NA,NA
"508","M5E7DW8rqI4v37HhD2pzGQ","Peking Garden Restaurant","Champaign","IL",4,52,40.1178493,-88.2450179,"Chinese","Restaurants",NA,NA,NA,NA,NA,NA,NA
"509","TRNYNeiLLY-1yobo4rArxQ","Wonderdogs","Champaign","IL",4,17,40.1113062,-88.2289026,"Hot Dogs","Restaurants",NA,NA,NA,NA,NA,NA,NA
"510","KUpdnQi16DGP54FlDWOJ6g","Bob Evans","Champaign","IL",3,19,40.1375386,-88.2444325,"Breakfast & Brunch","American (Traditional)","Restaurants",NA,NA,NA,NA,NA,NA
"511","MSMdhoUraQ0DLLwmLbM28A","Monical's Pizza","Champaign","IL",3.5,24,40.097774,-88.24573,"Pizza","Restaurants",NA,NA,NA,NA,NA,NA,NA
"512","pygZcdPZ-XMp8CY8_5tE8A","Number One Wok","Champaign","IL",3.5,15,40.1101982,-88.2430455,"Chinese","Restaurants",NA,NA,NA,NA,NA,NA,NA
"513","ljsTa0MiQyVfKrgq2FOKdg","McDonald's","Champaign","IL",2.5,14,40.0975069,-88.2452826,"Burgers","Fast Food","Restaurants",NA,NA,NA,NA,NA,NA
"514","EMjKhNWBprdlb5Obcia2uA","Prime Time Pizza","Champaign","IL",2.5,12,40.116061,-88.231376,"Pizza","Restaurants",NA,NA,NA,NA,NA,NA,NA
"515","0lFRJ0q1PU_R4YaLNRWnpA","Nitaya Thai Restaurant","Champaign","IL",3,49,40.118535,-88.244967,"Thai","Restaurants",NA,NA,NA,NA,NA,NA,NA
"516","oP8KsXHOUA_otHHI5JHScQ","The Great Impasta","Urbana","IL",3,27,40.1112419,-88.2072116,"Restaurants","Italian",NA,NA,NA,NA,NA,NA,NA
"517","1T2rnvl67Gk9Uc0gzsCKQA","Joe's Brewery","Champaign","IL",3,36,40.109713,-88.2317829,"Burgers","Bars","American (Traditional)","Nightlife","Restaurants",NA,NA,NA,NA
"518","dXLRevtIEnAvjUhPM_zTEg","Qdoba Mexican Grill","Champaign","IL",2,15,40.110041,-88.2296889,"Mexican","Restaurants",NA,NA,NA,NA,NA,NA,NA
"519","pPWre8lbVAssER6CN0uWMw","Esquire Lounge","Champaign","IL",4,88,40.116597,-88.242292,"American (Traditional)","Pizza","Nightlife","Pool Halls","Restaurants",NA,NA,NA,NA
"520","6U94ybDpNd0fTL7TIzb5Kg","Jupiter's Pizzeria and Billiards","Champaign","IL",4,86,40.117741911204,-88.241513984004,"Bars","Pool Halls","Nightlife","Lounges","Restaurants","Pizza",NA,NA,NA
"521","h9xdY1NO4GnNijNChTy-8A","Bacaro","Champaign","IL",4,140,40.116906980618,-88.242601924633,"Bars","Restaurants","Nightlife","Lounges","American (New)","Italian",NA,NA,NA
"522","AB5RgQ0ZnMThdqgFS3cPuw","Radio Maria","Champaign","IL",3.5,241,40.1171251,-88.2426687,"Breakfast & Brunch","Spanish","Cajun/Creole","Restaurants",NA,NA,NA,NA,NA
"523","-1oj6-fkP-iO6OyW8QBqPg","Jerusalem Middle Eastern Cuisine","Champaign","IL",3.5,42,40.1113,-88.229192,"Middle Eastern","Restaurants",NA,NA,NA,NA,NA,NA,NA
"524","562AuYjOuZwtTbS1UYhY6Q","Alexander's Steakhouse","Champaign","IL",3,53,40.1369071,-88.2452215,"Steakhouses","Restaurants",NA,NA,NA,NA,NA,NA,NA
"525","x5Mv61CnZLohZWxfCVCPTQ","Domino's Pizza","Phoenix","AZ",3,20,33.4794817,-112.0736806,"Sandwiches","Pizza","Chicken Wings","Restaurants",NA,NA,NA,NA,NA
"526","EmzaQR5hQlF0WIl24NxAZA","Sky Lounge","Phoenix","AZ",2.5,28,33.4483992,-112.0717019,"American (New)","Nightlife","Dance Clubs","Restaurants",NA,NA,NA,NA,NA
"527","KPoTixdjoJxSqRSEApSAGg","Wild Thaiger","Phoenix","AZ",3.5,492,33.477939,-112.073417,"Thai","Restaurants",NA,NA,NA,NA,NA,NA,NA
"528","e5kc0CQ4R-PCCDgb274gSg","Canyon Cafe","Phoenix","AZ",3.5,280,33.4521542,-112.0686202,"Cafes","Mexican","Tex-Mex","Restaurants",NA,NA,NA,NA,NA
"529","gBcpDl0quCLABsg5OuSFww","Teeter House Tea Room","Phoenix","AZ",3,13,33.4492979,-112.0655423,"Food","Tea Rooms","Breakfast & Brunch","Sandwiches","Restaurants",NA,NA,NA,NA
"530","72N6TdH5MdUWE2YhYRbyxw","Burger King","Phoenix","AZ",2.5,16,33.4762916,-112.0742133,"Burgers","Restaurants",NA,NA,NA,NA,NA,NA,NA
"531","neGAQFkBNI8-rpPBLBzNkw","Taco Bell","Phoenix","AZ",4,12,33.46544,-112.06909,"Fast Food","Mexican","Tex-Mex","Restaurants",NA,NA,NA,NA,NA
"532","45puCRQ6Vh_IIAy7kkfFDQ","Majerle's Sports Grill","Phoenix","AZ",3.5,224,33.4484654,-112.0712574,"Bars","Restaurants","American (Traditional)","Sports Bars","Nightlife",NA,NA,NA,NA
"533","nc3IiY5LNdmEwUZCW84yuA","Pizzeria Uno","Phoenix","AZ",2.5,18,33.4521542,-112.0686202,"Pizza","Restaurants",NA,NA,NA,NA,NA,NA,NA
"534","P7wKlbSRsoRrfH3DFOY08A","International House of Pancakes","Phoenix","AZ",3,71,33.475583,-112.074115,"Breakfast & Brunch","Restaurants",NA,NA,NA,NA,NA,NA,NA
"535","BESmH-lmMm34_EefL8X9fQ","Comedor Guadalajara","Phoenix","AZ",4,325,33.429424,-112.073929,"Mexican","Restaurants",NA,NA,NA,NA,NA,NA,NA
"536","D09yG6Z3gcsh24Qn7Y4gYA","Chico's Tacos","Phoenix","AZ",3,98,33.4657117,-112.0657286,"Mexican","Restaurants",NA,NA,NA,NA,NA,NA,NA
"537","kaIue7GRCmkPzDeHDBTttQ","Phoenix Blue Fin","Phoenix","AZ",4,194,33.4640982988196,-112.073568999767,"Sushi Bars","Japanese","Restaurants",NA,NA,NA,NA,NA,NA
"538","j8nyAaN_w5t6wYv-ni23sg","Coach & Willies","Phoenix","AZ",3,75,33.443909,-112.070122,"Nightlife","Bars","American (New)","Sports Bars","Restaurants",NA,NA,NA,NA
"539","VsO_rhXi5lgbaGxNwoEZsQ","Fate 905","Phoenix","AZ",3,87,33.4579128,-112.0686777,"Asian Fusion","Chinese","Restaurants",NA,NA,NA,NA,NA,NA
"540","Y293fHh5SZ0_9BZm4M6BCg","Matador Restaurant","Phoenix","AZ",2.5,57,33.4493093,-112.07194,"Greek","Mexican","Restaurants",NA,NA,NA,NA,NA,NA
"541","IceZ4BtTz76eppjNWm-c6A","Paisley Violin","Phoenix","AZ",3.5,58,33.4547647,-112.0865171,"Greek","Mediterranean","Restaurants",NA,NA,NA,NA,NA,NA
"542","QsvRjgQacMMFf8dit7qqDw","New Garden Restaurant","Phoenix","AZ",4,23,33.4392672,-112.0735434,"Chinese","Restaurants",NA,NA,NA,NA,NA,NA,NA
"543","-lOSaCuBRAvX5JBifx-EMw","Mi Amigo's Mexican Grill","Phoenix","AZ",3,138,33.4521542,-112.0686202,"Mexican","Restaurants",NA,NA,NA,NA,NA,NA,NA
"544","XI-_Y2XRw03mozGx0Z90Gw","Baja Fresh Mexican Grill","Phoenix","AZ",3.5,22,33.4487514,-112.0738147,"Mexican","Restaurants",NA,NA,NA,NA,NA,NA,NA
"545","qsWxbgQwuomXvMseg23DGg","Hooters","Phoenix","AZ",2.5,120,33.4523351,-112.0696144,"Bars","American (Traditional)","Sports Bars","Nightlife","Chicken Wings","Restaurants",NA,NA,NA
"546","DlCtdbceo4YNSI53cCL2lg","The Old Spaghetti Factory","Phoenix","AZ",3,315,33.46425,-112.074153,"Restaurants","Italian",NA,NA,NA,NA,NA,NA,NA
"547","kR5i58Pcse1FD9tk-yYLlA","Crave Sandwich Cafe & Catering","Phoenix","AZ",4,27,33.450875,-112.066333,"Sandwiches","Restaurants",NA,NA,NA,NA,NA,NA,NA
"548","2I666dqzs1XB6xigIKa9bA","Tom's Tavern & 1929 Grill","Phoenix","AZ",3,84,33.4484248169655,-112.07480205159,"American (Traditional)","Restaurants",NA,NA,NA,NA,NA,NA,NA
"549","yExYqENb4F6qH6kJxTOaSQ","Karim's Cobbler Shop & Deli","Phoenix","AZ",3.5,20,33.4458023,-112.0691069,"Delis","Restaurants",NA,NA,NA,NA,NA,NA,NA
"550","9BH18avE46LlHMvJn67MaA","The Downtown Deli","Phoenix","AZ",4,56,33.4499524,-112.0740511,"Breakfast & Brunch","Delis","Sandwiches","Restaurants",NA,NA,NA,NA,NA
"551","trAvQPp7gps0Btk-2AmLpw","Zoës Kitchen","Phoenix","AZ",3.5,138,33.465499,-112.081565,"Greek","Mediterranean","Sandwiches","Restaurants",NA,NA,NA,NA,NA
"552","gkv2XvXpFgiq4Bb2XK7YmQ","Hard Rock Cafe","Phoenix","AZ",3,137,33.446885057319,-112.07107588649,"Arts & Entertainment","Music Venues","Burgers","Nightlife","American (New)","Restaurants",NA,NA,NA
"553","If2DUhmWIvlu2JFc_rR-Bw","Papa Christo's","Phoenix","AZ",4,29,33.4484911,-112.0744277,"Italian","Pizza","Sandwiches","Restaurants",NA,NA,NA,NA,NA
"554","xH5axHFadmc7Veutt376TA","McDonald's","Phoenix","AZ",1.5,24,33.4653345,-112.0655975,"Burgers","Fast Food","Restaurants",NA,NA,NA,NA,NA,NA
"555","Vvh2Hd4SsZjEEfKLNKAEWw","Subway","Phoenix","AZ",3.5,14,33.479418,-112.0732961,"Fast Food","Sandwiches","Restaurants",NA,NA,NA,NA,NA,NA
"556","wki-Qlp3OWgH0XtZ-Jz_WQ","Duck & Decanter","Phoenix","AZ",4,60,33.4483756751795,-112.072706876078,"Delis","Sandwiches","Restaurants",NA,NA,NA,NA,NA,NA
"557","OoHWabV-ym7_HWlHeXTsVA","Best of Philly","Phoenix","AZ",4,77,33.4794824,-112.0740962,"Cheesesteaks","Sandwiches","Restaurants",NA,NA,NA,NA,NA,NA
"558","oSKT5oZX1NWYaHwOWL5lag","Ichi Ban Japanese Restaurant & Sushi","Phoenix","AZ",3,62,33.4794762,-112.0736809,"Sushi Bars","Japanese","Restaurants",NA,NA,NA,NA,NA,NA
"559","QAe9UHKsxPdXQovBpaznMQ","Schlotzskys Deli","Phoenix","AZ",3,12,33.476644,-112.0736968,"Delis","Fast Food","Sandwiches","Restaurants",NA,NA,NA,NA,NA
"560","q1nDSpmV-FdTBNj6UuZvTg","Honey Bear's BBQ","Phoenix","AZ",3,250,33.4796453,-112.074152,"Barbeque","Restaurants",NA,NA,NA,NA,NA,NA,NA
"561","muCl5p-9ut1sY0aKeUeRhw","Cheuvront","Phoenix","AZ",3.5,185,33.4633319,-112.0741467,"Wine Bars","Bars","American (New)","Nightlife","Restaurants",NA,NA,NA,NA
"562","oCA2OZcd_Jo_ggVmUx3WVw","Alice Cooper'stown","Phoenix","AZ",3.5,452,33.444801984944,-112.07211772211,"Bars","Music Venues","Arts & Entertainment","Nightlife","Sports Bars","Barbeque","Restaurants",NA,NA
"563","eK6KGMKqU_4nB9RdayZD7Q","Tee Pee Tap Room","Phoenix","AZ",2.5,35,33.442472,-112.065825,"Mexican","Restaurants",NA,NA,NA,NA,NA,NA,NA
"564","1-1VcGTL3GyCqUpXZLFTZA","Friday's Front Row Sports Grill","Phoenix","AZ",3,117,33.4453626,-112.0674961,"American (Traditional)","Restaurants",NA,NA,NA,NA,NA,NA,NA
"565","odhXwWaYZvD_icIN6f_DbA","Athenian Express","Phoenix","AZ",3.5,75,33.4575099,-112.0741235,"Greek","Mediterranean","Sandwiches","Restaurants",NA,NA,NA,NA,NA
"566","hWhVP-28LYP3llaMlAJ_JA","Rosita's Place","Phoenix","AZ",4,254,33.466086,-112.0323491,"Mexican","Restaurants",NA,NA,NA,NA,NA,NA,NA
"567","ixTr1qXUFGTzyaZUuCDDvg","Whataburger","Phoenix","AZ",3,36,33.4654334,-112.063548,"Burgers","American (Traditional)","Fast Food","Restaurants",NA,NA,NA,NA,NA
"568","ZoQAOnEFnyHjSpomtfqesA","That's A Wrap","Phoenix","AZ",4,83,33.4701393,-112.0654347,"Sandwiches","Restaurants",NA,NA,NA,NA,NA,NA,NA
"569","apCfJVnRyaw6oVUBKujpUQ","La Tolteca Mexican Foods","Phoenix","AZ",4,156,33.45107,-112.055957,"Grocery","Mexican","Food","Ethnic Food","Specialty Food","Restaurants",NA,NA,NA
"570","ykfTh6HI219NoMsWBxulxw","Gourmet House Of Hong Kong","Phoenix","AZ",3.5,98,33.466043,-112.05026,"Chinese","Restaurants",NA,NA,NA,NA,NA,NA,NA
"571","tb24fvNJfHhyKEXkKn12Xw","Welcome Diner","Phoenix","AZ",4.5,563,33.4588421,-112.0609975,"Nightlife","Bars","American (Traditional)","Diners","Restaurants",NA,NA,NA,NA
"572","VXIkI9_EbDbYHeO9IzKjJg","Los Altos Ranch Market","Phoenix","AZ",4.5,159,33.4599088,-112.04608,"Food","Grocery","Mexican","Restaurants",NA,NA,NA,NA,NA
"573","VKxn7zmp8nOYT-ZHFZTjgA","Mariscos Ensenada","Phoenix","AZ",4.5,38,33.470153,-112.0474211,"Seafood","Fish & Chips","Mexican","Restaurants",NA,NA,NA,NA,NA
"574","rbiRLiFTG098z9JaK3Nshw","Guanaquito Restaurant","Phoenix","AZ",4,90,33.4659637,-112.0506694,"Latin American","Salvadoran","Restaurants",NA,NA,NA,NA,NA,NA
"575","cgNIBHS2mLdbTRiodAT6EQ","Tacos De Juarez","Phoenix","AZ",4,96,33.459347,-112.064755,"Mexican","Restaurants",NA,NA,NA,NA,NA,NA,NA
"576","SZvYxcvYYVRue9MXcEDjsA","Coco's Family Restaurant","Phoenix","AZ",3.5,62,33.4708674,-112.0653819,"Bakeries","Food","American (Traditional)","Restaurants",NA,NA,NA,NA,NA
"577","5-X03Zc0nN7U5eoe8uFUdw","Coronado Cafe","Phoenix","AZ",4,174,33.4713,-112.064761,"American (New)","Restaurants",NA,NA,NA,NA,NA,NA,NA
"578","0De3TQ_uSOXwgduKL0va3w","Sonic Drive-In","Phoenix","AZ",3.5,15,33.4661987,-112.0632154,"Fast Food","Restaurants",NA,NA,NA,NA,NA,NA,NA
"579","R6aazv8FB-6BeanY3ag8kw","MacAlpine's Soda Fountain","Phoenix","AZ",4,263,33.473125,-112.0650914,"American (Traditional)","Shopping","Comfort Food","Antiques","Restaurants",NA,NA,NA,NA
"580","Xo9Im4LmIhQrzJcO4R3ZbA","Rito's Market & Mexican Take Out","Phoenix","AZ",4.5,242,33.4579361,-112.0520629,"Mexican","Restaurants",NA,NA,NA,NA,NA,NA,NA
"581","NYBx4sdSVrN-I5Q8RfLMPg","San Carlos Bay Seafood Restaurant","Phoenix","AZ",4,52,33.4655407,-112.0409279,"Seafood","Mexican","Restaurants",NA,NA,NA,NA,NA,NA
"582","Cp6JGY5YIRncTV_My9nf9g","Mariscos Playa Hermosa","Phoenix","AZ",4.5,323,33.4575086,-112.047312,"Seafood","Mexican","Restaurants",NA,NA,NA,NA,NA,NA
"583","q2SZa5g85758iW1L9sSL1g","Eliana's Restaurant","Phoenix","AZ",4,69,33.4668576,-112.0298525,"Latin American","Salvadoran","Restaurants",NA,NA,NA,NA,NA,NA
"584","po5FyERB4lUZNnBIwnhFlg","Sonic Drive-In","Phoenix","AZ",3,27,33.4661343,-111.973718,"American (Traditional)","Fast Food","Restaurants",NA,NA,NA,NA,NA,NA
"585","_RBUU1y4yJrK0SPAd8z0-w","Indian Delhi Palace","Phoenix","AZ",3.5,210,33.4657562,-111.9718284,"Indian","Buffets","Event Planning & Services","Venues & Event Spaces","Restaurants",NA,NA,NA,NA
"586","W41CEzdKJe8wdDB-Rd6KJQ","Breakroom Bar & Grill","Phoenix","AZ",4,55,33.4652475974941,-111.97925894841,"Bars","American (Traditional)","Pool Halls","Nightlife","Sports Bars","Restaurants",NA,NA,NA
"587","PEHJjxdw11TGFma9Zhz3ng","Red Devil Italian Restaurant & Pizzeria","Phoenix","AZ",4,156,33.466124,-112.015464,"Caterers","Restaurants","Event Planning & Services","Italian",NA,NA,NA,NA,NA
"588","xfk9eY8gmwn8qsbyd-W6lQ","Honey Bear's BBQ","Phoenix","AZ",3,186,33.4514039,-111.973603,"Barbeque","Restaurants",NA,NA,NA,NA,NA,NA,NA
"589","_gXpjRIjb5fv5f5IVGXvsw","Del Taco","Phoenix","AZ",3.5,27,33.466688,-111.987753,"Fast Food","Restaurants",NA,NA,NA,NA,NA,NA,NA
"590","11TvD4sCfA8GEqLDANpbSQ","Los Jarritos Restaurant","Phoenix","AZ",3.5,14,33.4513465,-111.9810889,"Mexican","Restaurants",NA,NA,NA,NA,NA,NA,NA
"591","ZAgPh4v-oOb1g6cdlkKI0g","Phoenix House Of Pizza And Subs","Phoenix","AZ",3.5,17,33.4518,-111.9789,"Italian","Pizza","Sandwiches","Restaurants",NA,NA,NA,NA,NA
"592","2unQHR9uaRxk3dsW6f3MGA","Lao Ching Hing","Phoenix","AZ",3,48,33.4552907,-111.9878697,"Chinese","Restaurants",NA,NA,NA,NA,NA,NA,NA
"593","s87D-mtAuJ8BluKgYYsXGw","El Nopalito","Phoenix","AZ",3.5,59,33.4796892,-112.0297946,"Mexican","Restaurants",NA,NA,NA,NA,NA,NA,NA
"594","yQONzVpX-DEpGSuKMIov6A","Szechwan Palace","Phoenix","AZ",3.5,222,33.4554111,-111.9883925,"Chinese","Restaurants",NA,NA,NA,NA,NA,NA,NA
"595","9tefv6uPxoHhp_OlQQJVXA","Canton Wong","Phoenix","AZ",2.5,13,33.4766277,-112.0128996,"Chinese","Restaurants",NA,NA,NA,NA,NA,NA,NA
"596","Um5VnQXli9IwplV2rmgggg","Souper Salad","Phoenix","AZ",3,46,33.478444,-111.9864838,"Buffets","Restaurants",NA,NA,NA,NA,NA,NA,NA
"597","_8Y-XNHmQ76xmxUQIrn0sA","Blimpie","Phoenix","AZ",3.5,15,33.4736745,-111.9862587,"Sandwiches","Restaurants",NA,NA,NA,NA,NA,NA,NA
"598","rAb_wfdKKPPbcIysjYcW4A","Pozoleria Guerrero","Phoenix","AZ",4,14,33.450927,-112.0211988,"Mexican","Restaurants",NA,NA,NA,NA,NA,NA,NA
"599","hzUOqxpcnYYBgLlrgvjQYQ","Applebee's","Phoenix","AZ",2.5,93,33.4764103,-111.9864526,"Bars","American (Traditional)","Burgers","Nightlife","Sports Bars","Restaurants",NA,NA,NA
"600","5UBAWhxukaPrc_0DalT-3w","Taco Bell","Phoenix","AZ",3.5,16,33.476956,-111.986944,"Fast Food","Mexican","Tex-Mex","Restaurants",NA,NA,NA,NA,NA
"601","jzPMl-NoB5F2fwoHX3hN8A","Macayo's Mexican Restaurants","Phoenix","AZ",3,188,33.4926708,-112.0734808,"Mexican","Restaurants",NA,NA,NA,NA,NA,NA,NA
"602","I4L_MJOZsnux3xCU2bLP8Q","Cranberry Hills Eatery & Catering","Phoenix","AZ",4,29,33.4825295,-112.0732229,"Food","Breakfast & Brunch","American (New)","Coffee & Tea","Restaurants",NA,NA,NA,NA
"603","JN2qXIuDXnV2d8WnSqd28A","Streets of New York","Phoenix","AZ",3,74,33.5095515,-112.0701304,"Italian","Pizza","Sandwiches","Restaurants",NA,NA,NA,NA,NA
"604","KIbFaBrZDX7rrYJInkv5Kg","Del Taco","Phoenix","AZ",3,27,33.4796364,-112.0690845,"Mexican","Restaurants",NA,NA,NA,NA,NA,NA,NA
"605","-AAig9FG0s8gYE4f8GfowQ","Pane Bianco","Phoenix","AZ",4,459,33.5006213,-112.0743113,"Pizza","Italian","Sandwiches","Restaurants",NA,NA,NA,NA,NA
"606","SfrBXbRdNB_gqPkIgJyKCg","Bitter Creek Cafe","Phoenix","AZ",4,15,33.4633481,-112.0640507,"Food","Coffee & Tea","American (New)","Sandwiches","Restaurants",NA,NA,NA,NA
"607","7Jmri1RCl9Ksmpi5EoIOZQ","Duck & Decanter","Phoenix","AZ",4,25,33.4847321,-112.0733205,"Sandwiches","Restaurants",NA,NA,NA,NA,NA,NA,NA
"608","3xEB9FyFXolq1b_Qn_BFtg","George & Dragon Restaurant","Phoenix","AZ",3.5,347,33.4978019,-112.074054,"Pubs","Bars","Nightlife","British","Restaurants",NA,NA,NA,NA
"609","SkNUbFJiJtbZjY-S_S0u7g","The Good Egg - Uptown","Phoenix","AZ",3.5,73,33.5096052184218,-112.071961359533,"Breakfast & Brunch","Restaurants",NA,NA,NA,NA,NA,NA,NA
"610","g4Eit1EeeEGhTVik6AWYsA","Wendy's","Phoenix","AZ",1.5,26,33.4945129,-112.0689256,"Burgers","Fast Food","Restaurants",NA,NA,NA,NA,NA,NA
"611","cIwMq5KNq0ASQzoTP1dE9Q","Boston Market","Phoenix","AZ",4,21,33.5107343896285,-112.073318521973,"Event Planning & Services","American (Traditional)","Caterers","Comfort Food","Restaurants",NA,NA,NA,NA
"612","cjUmPLRT43wN9Z87A9BOpg","Applebee's","Phoenix","AZ",2.5,99,33.5095681227152,-112.073327446624,"Bars","American (Traditional)","Nightlife","Steakhouses","Sports Bars","Restaurants",NA,NA,NA
"613","UWrB5H3G-hhiHMy3iKV2ew","Cheese 'n Stuff","Phoenix","AZ",4.5,98,33.5102286,-112.0741357,"Cheese Shops","Food","Specialty Food","Delis","Sandwiches","Restaurants",NA,NA,NA
"614","-3WVw1TNQbPBzaKCaQQ1AQ","China Chili","Phoenix","AZ",4,368,33.4859173,-112.0690737,"Chinese","Restaurants",NA,NA,NA,NA,NA,NA,NA
"615","wTiQXYB9fE9rcSZDsZgbtQ","Sweet Tomatoes","Phoenix","AZ",3.5,65,33.509666657083,-112.071740126281,"Vegetarian","Buffets","Salad","Restaurants",NA,NA,NA,NA,NA
"616","L19_1cG2ALVjdBQ456h26A","Yoshi's Restaurant","Phoenix","AZ",3,51,33.4940597,-112.0741454,"Fast Food","Japanese","Restaurants",NA,NA,NA,NA,NA,NA
"617","zZmhEpiVpRfFQid87-pcOQ","Dairy Queen","Phoenix","AZ",3.5,25,33.5104095390948,-112.074047388055,"Food","Ice Cream & Frozen Yogurt","Fast Food","Restaurants",NA,NA,NA,NA,NA
"618","WPSM_oTPceoSnwqQWfAsdg","Qdoba Mexican Grill","Phoenix","AZ",3.5,33,33.4833078592673,-112.075009830603,"Mexican","Restaurants",NA,NA,NA,NA,NA,NA,NA
"619","3UMcsN9IjoeV8JZvC4apag","Sunup Brewing","Phoenix","AZ",3.5,293,33.5094995,-112.0687616,"Food","Breweries","American (New)","Sandwiches","Restaurants",NA,NA,NA,NA
"620","kUGgkYxXxHDhD6mtpQdUNQ","Domino's Pizza","Phoenix","AZ",2.5,13,33.5095292,-112.0609579,"Sandwiches","Pizza","Chicken Wings","Restaurants",NA,NA,NA,NA,NA
"621","DeAnVirgOxQnI36V1W158A","Juan's Authentic Mexican Food","Phoenix","AZ",4,145,33.4804917,-112.0490225,"Mexican","Restaurants",NA,NA,NA,NA,NA,NA,NA
"622","ML1RJdeZ7bbfMrHvJ7m99A","Oregano's Pizza Bistro","Phoenix","AZ",4,393,33.5094801,-112.0601964,"Italian","Pizza","Restaurants",NA,NA,NA,NA,NA,NA
"623","-S7aL8dVIiXjCdbTZVn8uA","Manhattan Pizzeria and Subshop","Phoenix","AZ",3.5,26,33.5139355,-112.0652187,"Kosher","Pizza","Restaurants",NA,NA,NA,NA,NA,NA
"624","AkOruz5CrCxUmXe1p_WoRg","Cherryblossom Noodle Cafe","Phoenix","AZ",4,771,33.5095292,-112.0609579,"Noodles","Ramen","Japanese","Restaurants",NA,NA,NA,NA,NA
"625","kIvIqHvvFOc6aCutFYIvNg","Taco Bell","Phoenix","AZ",2.5,17,33.523756,-112.049638,"Fast Food","Mexican","Tex-Mex","Restaurants",NA,NA,NA,NA,NA
"626","3CSaqRNvYg7ZdN2zwxwzVw","Christo's Ristorante","Phoenix","AZ",4,113,33.529845,-112.064704,"Bars","Seafood","Wine Bars","Nightlife","Italian","Restaurants",NA,NA,NA
"627","FW2Z4ll4zSOEDAJX9-wBZA","The Great Dane Restaurant","Phoenix","AZ",4,51,33.52812,-112.0646901,"Hot Dogs","Sandwiches","Restaurants",NA,NA,NA,NA,NA,NA
"628","XcwbN5fDlyl8qCttcdDGKA","Rolberto's","Phoenix","AZ",3.5,19,33.5102487,-112.0652928,"Mexican","Restaurants",NA,NA,NA,NA,NA,NA,NA
"629","VlG9qxAc4d0em2djaU__xw","Jordan's Mexican Food","Phoenix","AZ",3,63,33.5289148,-112.064517,"Mexican","Restaurants",NA,NA,NA,NA,NA,NA,NA
"630","naUFPFYH2CqHtTrV3IAJrQ","Crown China Super Buffet","Phoenix","AZ",2.5,18,33.5167768,-112.0646478,"Buffets","Chinese","Restaurants",NA,NA,NA,NA,NA,NA
"631","W8WyVVxinyRjzP8gJa7ILg","Tokyo Express","Phoenix","AZ",2.5,42,33.5095292,-112.0609579,"Japanese","Restaurants",NA,NA,NA,NA,NA,NA,NA
"632","PxeX1M8WtyPxX1MuuGIh-g","Scott's Generations Restaurant & Delicatessen","Phoenix","AZ",3.5,195,33.5184314,-112.0641262,"Sandwiches","Delis","Breakfast & Brunch","Restaurants",NA,NA,NA,NA,NA
"633","auorqdHiATGZHVd-sd79ZQ","Pizza Heaven Bistro","Phoenix","AZ",4,285,33.5124076744064,-112.065353393555,"Italian","Pizza","Restaurants",NA,NA,NA,NA,NA,NA
"634","MEraJIKYztC7IOzYwMe86g","Raimondo's","Phoenix","AZ",3.5,18,33.5102274,-112.0806121,"Restaurants","Pizza","Italian",NA,NA,NA,NA,NA,NA
"635","FKHv7FkblONv9qqBndJUrg","Denny's","Phoenix","AZ",3,57,33.5094973533149,-112.065289681841,"Breakfast & Brunch","American (Traditional)","Diners","Restaurants",NA,NA,NA,NA,NA
"636","od49_DFUJY9louGx80My-A","Pancho's Mexican Buffet","Phoenix","AZ",2.5,29,33.4943842,-112.0606304,"Buffets","Mexican","Restaurants",NA,NA,NA,NA,NA,NA
"637","lHKS896yFkmAuWyFnbNP3A","King Solomon's Pizza","Phoenix","AZ",4.5,16,33.5080653,-112.065452,"Kosher","Italian","Pizza","Restaurants",NA,NA,NA,NA,NA
"638","rrPRCU1m22v02k60YvJNrg","Domino's Pizza","Phoenix","AZ",2.5,14,33.4807004,-112.028413,"Sandwiches","Pizza","Chicken Wings","Restaurants",NA,NA,NA,NA,NA
"639","LzpR_jE6VIutJ08s2cdRrw","Coup Des Tartes","Phoenix","AZ",4,215,33.504777,-112.047846,"French","Restaurants",NA,NA,NA,NA,NA,NA,NA
